City,Latitude,Longitude,Weather Description,Temperature (째C),Perceived Temperature (째C),Humidity (%),Wind Speed (m/s),Timestamp
Zuru,11.42406,5.22879,overcast clouds,38.02,34.79,6,3.53,2024-03-07 13:27:31
Zungeru,9.81278,6.15583,broken clouds,37.67,40.63,35,3.59,2024-03-07 13:27:32
Zaria,11.11128,7.7227,broken clouds,37.55,36.08,20,2.99,2024-03-07 13:27:33
Zango,13.05151,8.48765,overcast clouds,39.33,36.65,12,1.85,2024-03-07 13:27:34
Zalanga,10.61432,10.17647,overcast clouds,39.7,36.7,10,2.25,2024-03-07 13:27:35
Zaki Biam,7.51667,9.61667,overcast clouds,35.01,37.23,40,3.81,2024-03-07 13:27:36
Zadawa,11.4496,10.3672,overcast clouds,39.3,36.17,9,1.28,2024-03-07 13:27:37
Yuli,9.69889,10.27444,overcast clouds,41.12,41,20,1.59,2024-03-07 13:27:38
Yola,9.2,12.48333,clear sky,39.9,44.32,33,7.72,2024-03-07 13:27:39
Yenagoa,4.92472,6.26417,overcast clouds,35.93,40.47,44,3.38,2024-03-07 13:27:39
Yelwa,8.83333,9.63333,overcast clouds,38.23,39.85,30,3.81,2024-03-07 13:27:40
Yashikira,9.76667,3.4,broken clouds,40.12,38.41,16,1.08,2024-03-07 13:27:41
Yandev,7.36667,9.05,overcast clouds,35.51,37.86,39,4.51,2024-03-07 13:27:42
Yanda Bayo,11.5071,10.7459,overcast clouds,38.74,35.55,8,1.29,2024-03-07 13:27:43
Yamrat,10.11161,9.82604,overcast clouds,39.01,36.86,15,2.59,2024-03-07 13:27:44
Yajiwa,11.38385,12.7236,broken clouds,41.64,37.97,7,4.01,2024-03-07 13:27:45
Wuyo,10.38522,11.69678,overcast clouds,38.27,37.25,21,2.07,2024-03-07 13:27:46
Wusasa,11.07543,7.67925,broken clouds,37.47,35.98,20,2.96,2024-03-07 13:27:47
Wurno,13.28777,5.42326,overcast clouds,40.12,36.52,6,3.32,2024-03-07 13:27:47
Wukari,7.85,9.78333,overcast clouds,35.96,38.72,39,4.22,2024-03-07 13:27:48
Wudil,11.81067,8.84505,broken clouds,40.38,38.22,14,0.75,2024-03-07 13:27:49
Wawa,9.90222,4.41917,broken clouds,38.79,38.52,23,0.73,2024-03-07 13:27:50
Wauro Jabbe,9.26667,12.41667,clear sky,40.06,44.66,33,7.72,2024-03-07 13:27:50
Wasagu,11.3764,5.79536,broken clouds,38.34,36.27,16,4.29,2024-03-07 13:27:51
Warri,5.51667,5.75,overcast clouds,30.94,35.74,64,2.92,2024-03-07 13:27:52
Wamba,8.93333,8.6,overcast clouds,36.23,38.57,37,2.59,2024-03-07 13:27:53
Walmayo,7.7315,8.5441,broken clouds,38.4,42.09,35,3.18,2024-03-07 13:27:54
Wagini,12.68781,7.19579,broken clouds,39.34,37.45,16,3.6,2024-03-07 13:27:55
Vom,9.73333,8.78333,overcast clouds,30.74,29.65,32,3.15,2024-03-07 13:27:56
Uyo,5.03333,7.92657,broken clouds,34.64,39.11,48,2.17,2024-03-07 13:27:56
Uruobo-Okija,5.90016,6.84312,overcast clouds,32.37,36.42,55,1.97,2024-03-07 13:27:57
Uromi,6.7,6.33333,overcast clouds,32.17,34.43,49,3.03,2024-03-07 13:27:58
Umunede,6.26374,6.31161,overcast clouds,33.01,36.03,49,2.55,2024-03-07 13:27:59
Umuahia,5.52627,7.48959,overcast clouds,35.81,39.11,41,2.77,2024-03-07 13:27:59
Ukata,10.83122,5.82494,broken clouds,38.1,37.78,24,3.86,2024-03-07 13:28:00
Ughelli,5.48986,6.00743,overcast clouds,30.87,36.39,67,2.28,2024-03-07 13:28:01
Ugep,5.8086,8.0812,broken clouds,36.61,40.01,39,2.36,2024-03-07 13:28:02
Uga Soja,7.7124,8.6137,broken clouds,38.31,41.91,35,3.33,2024-03-07 13:28:02
Uga,5.93576,7.0793,overcast clouds,32.32,35.48,52,2.92,2024-03-07 13:28:03
Udi,6.3144,7.4258,overcast clouds,33.03,34.75,44,3.78,2024-03-07 13:28:04
Ubiaja,6.65504,6.38687,overcast clouds,32.96,35.65,48,2.91,2024-03-07 13:28:05
Uba,10.45306,13.22139,overcast clouds,23.91,24.73,91,0.92,2024-03-07 13:28:06
Tungan Ali,9.00556,7.22194,few clouds,34.25,40.81,55,3.09,2024-03-07 13:28:06
Toungo,8.11667,12.05,overcast clouds,38.47,38.33,24,3.66,2024-03-07 13:28:08
Tokombere,11.22713,13.48581,broken clouds,41.14,37.53,7,4.71,2024-03-07 13:28:09
Tegina,10.0706,6.1906,broken clouds,37.21,39.05,33,3.37,2024-03-07 13:28:10
Tambuwal,12.40386,4.64692,broken clouds,39.7,36.17,6,2.76,2024-03-07 13:28:11
Talata Mafara,12.57317,6.05971,overcast clouds,39.93,36.62,8,4.31,2024-03-07 13:28:12
Takum,7.26667,9.98333,overcast clouds,35.13,37.16,39,3.75,2024-03-07 13:28:12
Takai,11.58333,9.11667,broken clouds,40.09,37.66,13,1.01,2024-03-07 13:28:13
Suya,9.46667,3.18333,broken clouds,38.34,37.34,21,1.34,2024-03-07 13:28:14
Suleja,9.17583,7.18083,overcast clouds,33.55,34.44,39,3.1,2024-03-07 13:28:15
Sokoto State,13.08333,5.25,overcast clouds,40.24,36.62,6,3.11,2024-03-07 13:28:16
Sokoto,13.06092,5.23902,overcast clouds,39.96,36.39,6,3.12,2024-03-07 13:28:16
Soba,10.98134,8.05749,scattered clouds,38.26,36.78,19,2.84,2024-03-07 13:28:17
Siluko,6.53858,5.1609,overcast clouds,34.64,39.47,49,2.79,2024-03-07 13:28:18
Shinkafi,13.07534,6.51046,overcast clouds,38.93,36.24,12,2.75,2024-03-07 13:28:19
Shani,10.21617,12.06198,overcast clouds,37.7,36.95,23,1.81,2024-03-07 13:28:20
Shanga,11.21062,4.57878,overcast clouds,39,35.59,6,1.97,2024-03-07 13:28:21
Saki,8.66667,3.38333,overcast clouds,35.38,35.69,32,2.85,2024-03-07 13:28:21
Shagamu,6.84323,3.64776,overcast clouds,32.88,36.92,53,3.26,2024-03-07 13:28:22
Shaffa,10.50673,12.33315,overcast clouds,38.73,35.89,11,1.5,2024-03-07 13:28:23
Sauri,11.72655,6.78374,scattered clouds,37.76,36.57,21,3.8,2024-03-07 13:28:24
Sapele,5.89405,5.67666,overcast clouds,33.23,38.34,55,3.33,2024-03-07 13:28:25
Samamiya,11.34873,9.63989,broken clouds,39.69,37.22,13,1.4,2024-03-07 13:28:26
Sade,11.3595,10.6732,overcast clouds,39.1,35.99,9,1.19,2024-03-07 13:28:26
Runka,12.44788,7.30918,broken clouds,39.36,37.48,16,3.43,2024-03-07 13:28:27
Ruma,12.8626,7.23469,overcast clouds,5.94,3.65,81,2.98,2024-03-07 13:28:28
Rivers State,4.74974,6.82766,broken clouds,33.13,35.44,46,3.37,2024-03-07 13:28:29
Riti,7.91667,9.61667,overcast clouds,36.39,39.22,38,4.16,2024-03-07 13:28:30
Ringim,12.15482,9.16192,overcast clouds,39.79,36.79,10,1.43,2024-03-07 13:28:30
Rijau,11.10298,5.25068,broken clouds,38.6,35.2,5,3.27,2024-03-07 13:28:31
Rano,11.54912,8.57464,broken clouds,39.88,37.64,14,0.51,2024-03-07 13:28:32
Saminaka,10.41403,8.68279,overcast clouds,36.75,35.26,21,1.74,2024-03-07 13:28:33
Rabah,13.12133,5.50741,broken clouds,40.24,36.62,6,3.39,2024-03-07 13:28:34
Potiskum,11.7091,11.0694,overcast clouds,39.74,36.32,7,1.46,2024-03-07 13:28:34
Port Harcourt,4.77742,7.0134,overcast clouds,33.1,35.92,48,3.06,2024-03-07 13:28:35
Plateau State,9.16667,9.75,overcast clouds,37.71,37.74,26,2.4,2024-03-07 13:28:36
Pindiga,9.98333,10.93333,overcast clouds,38.61,38.84,25,2.75,2024-03-07 13:28:37
Patigi,8.73333,5.75,overcast clouds,38.11,41.51,35,2.26,2024-03-07 13:28:37
Patani,5.22724,6.19238,overcast clouds,34.42,39.69,51,3.65,2024-03-07 13:28:38
Panyam,9.41667,9.21667,overcast clouds,34.39,32.48,21,2.87,2024-03-07 13:28:40
Pankshin,9.33333,9.45,overcast clouds,32.42,30.95,27,2.82,2024-03-07 13:28:41
Ozubulu,5.95666,6.84904,overcast clouds,32.16,35.98,55,2.29,2024-03-07 13:28:42
Oyo State,8.0,4.0,overcast clouds,35.08,37.67,41,3.59,2024-03-07 13:28:42
Oyo,7.85,3.93333,overcast clouds,34.73,37.62,43,3.75,2024-03-07 13:28:43
Oyan,8.05,4.76667,overcast clouds,32.14,34.62,50,3.08,2024-03-07 13:28:44
Owode,6.94864,3.50511,overcast clouds,32.31,35.2,51,3,2024-03-07 13:28:44
Owo,7.1962,5.58681,overcast clouds,32.34,35.26,51,2.93,2024-03-07 13:28:45
Owerri,5.48333,7.03041,overcast clouds,35.63,39.45,43,2.34,2024-03-07 13:28:46
Otukpa,7.08921,7.64989,overcast clouds,34.53,36.36,40,3.67,2024-03-07 13:28:47
Otta,6.66667,3.73333,clear sky,2.3,2.3,74,1.08,2024-03-07 13:28:48
Osogbo,7.76667,4.56667,overcast clouds,33.95,37.32,47,3.02,2024-03-07 13:28:48
Oron,4.82561,8.23434,overcast clouds,32.39,37.68,59,3.14,2024-03-07 13:28:49
Orodo,5.61667,7.03333,overcast clouds,33.98,37.69,48,2.64,2024-03-07 13:28:50
Orlu,5.79464,7.03495,overcast clouds,32.38,36.16,54,2.85,2024-03-07 13:28:51
Orita Eruwa,7.55,3.43333,overcast clouds,34.48,37.76,45,3.83,2024-03-07 13:28:52
Orerokpe,5.63506,5.88956,overcast clouds,31.76,37.11,62,2.97,2024-03-07 13:28:53
Ore,6.74569,4.87748,overcast clouds,34.65,38.44,46,2.21,2024-03-07 13:28:54
Opi,6.7814,7.4365,overcast clouds,32.92,34.56,44,3.71,2024-03-07 13:28:55
Onitsha,6.14543,6.78845,overcast clouds,32.59,36.6,54,2.31,2024-03-07 13:28:55
Ondo State,7.16667,5.08333,overcast clouds,32.45,35.47,51,2.17,2024-03-07 13:28:56
Ondo,7.1,4.83333,overcast clouds,33.13,36.26,49,2.39,2024-03-07 13:28:57
Omuo-Ekiti,7.75833,5.72227,overcast clouds,31.78,33.74,49,3.02,2024-03-07 13:28:58
Omu-Aran,8.13333,5.1,overcast clouds,32.75,34.75,46,3.39,2024-03-07 13:28:59
Omoku,5.3435,6.65321,overcast clouds,33.09,34.15,41,2.04,2024-03-07 13:29:00
Olupona,7.6,4.18333,overcast clouds,32.82,35.65,49,3.35,2024-03-07 13:29:00
Okuta,9.21667,3.18333,overcast clouds,37.01,36.45,25,1.54,2024-03-07 13:29:01
Okrika,4.74159,7.08488,overcast clouds,33.18,36.65,50,3.52,2024-03-07 13:29:02
Oko,6.2995,5.59383,overcast clouds,34.49,38.78,48,3.22,2024-03-07 13:29:03
Okigwe,5.83523,7.35989,overcast clouds,34.94,38.04,43,3.09,2024-03-07 13:29:04
Oke Mesi,7.81667,4.91667,overcast clouds,31.54,33.99,52,2.61,2024-03-07 13:29:06
Okeho,8.03333,3.35,overcast clouds,33.79,35.58,42,3.57,2024-03-07 13:29:07
Ohunene,7.46614,6.66587,overcast clouds,35.76,39.36,42,3.1,2024-03-07 13:29:08
Ohafia-Ifigh,5.61455,7.81191,overcast clouds,36.6,39.99,39,2.08,2024-03-07 13:29:09
Ogwashi-Uku,6.17818,6.52429,overcast clouds,32.65,35.87,51,2.34,2024-03-07 13:29:10
Oguta,5.7089,6.81026,overcast clouds,33.14,37.81,54,1.85,2024-03-07 13:29:11
Ogurugu,6.78558,6.95053,overcast clouds,35.1,38.7,44,3.02,2024-03-07 13:29:12
Ogun State,7.0,3.58333,overcast clouds,33.36,37.33,51,2.96,2024-03-07 13:29:13
Ogoja,6.65471,8.79764,overcast clouds,34.75,38.31,45,3.85,2024-03-07 13:29:14
Ogbomoso,8.13333,4.26667,broken clouds,36.08,38.96,39,3.42,2024-03-07 13:29:15
Ogaminana,7.59464,6.22476,overcast clouds,34.46,37.4,44,3.28,2024-03-07 13:29:16
Offa,8.15,4.71667,overcast clouds,35.44,40.92,48,3.16,2024-03-07 13:29:17
Ode,7.7899,5.7117,overcast clouds,31.93,33.77,48,3.08,2024-03-07 13:29:17
Ochobo,7.183,7.9769,overcast clouds,37.35,40.76,37,3.21,2024-03-07 13:29:18
Obudu,6.66737,9.17157,overcast clouds,32.88,35.5,48,2.81,2024-03-07 13:29:19
Obubra,6.07525,8.32904,broken clouds,35.68,39.2,42,2.55,2024-03-07 13:29:20
Obonoma,4.70844,6.79307,broken clouds,33.16,35.76,47,3.55,2024-03-07 13:29:20
Obolo-Eke (1),6.88333,7.63333,overcast clouds,35.49,38.14,40,3.59,2024-03-07 13:29:21
Obiaruku,5.84671,6.15257,overcast clouds,33.45,38.18,53,3.43,2024-03-07 13:29:22
Numan,9.46667,12.03333,broken clouds,40.14,40.23,22,3.59,2024-03-07 13:29:23
Nsukka,6.8561,7.3927,overcast clouds,32.98,34.91,45,3.63,2024-03-07 13:29:24
Nnewi,6.01986,6.91478,overcast clouds,32.11,35.6,54,2.72,2024-03-07 13:29:24
Nkwerre,5.75555,7.10627,overcast clouds,33.03,36.64,51,3.16,2024-03-07 13:29:25
Nkpor,6.15164,6.84458,overcast clouds,31.88,35.13,54,2.42,2024-03-07 13:29:26
Niger State,10.0,6.0,broken clouds,38.03,40.2,32,3.87,2024-03-07 13:29:27
Federal Republic of Nigeria,10.0,8.0,scattered clouds,36.19,35.31,25,2.74,2024-03-07 13:29:28
Nguru,12.8791,10.4526,broken clouds,39.93,36.48,7,2.16,2024-03-07 13:29:29
Ngurore,9.28333,12.23333,overcast clouds,40.03,40.41,23,4.14,2024-03-07 13:29:30
Ngala,12.33772,14.18052,scattered clouds,40.37,37.55,11,5.99,2024-03-07 13:29:31
New Shagunnu,10.33957,4.4688,overcast clouds,36.04,37.6,35,1.83,2024-03-07 13:29:33
Nasarawa,8.52944,7.72417,overcast clouds,36.51,39.45,38,3.05,2024-03-07 13:29:34
Nafada,11.0956,11.3327,broken clouds,39.8,36.64,9,2.13,2024-03-07 13:29:35
Mutum Biyu,8.63333,10.76667,broken clouds,40.48,41.9,25,4.29,2024-03-07 13:29:37
Musawa,12.12717,7.6698,scattered clouds,39.2,36.88,14,1.6,2024-03-07 13:29:39
Mubi,10.26761,13.26436,overcast clouds,36.55,33.95,13,2.24,2024-03-07 13:29:40
Moriki,12.87405,6.48754,broken clouds,40.4,38.01,13,2.98,2024-03-07 13:29:41
Monguno,12.67863,13.60792,overcast clouds,37.59,35.42,16,5.55,2024-03-07 13:29:42
Mokwa,9.28333,5.05,overcast clouds,39.72,40.62,25,2.41,2024-03-07 13:29:44
Modakeke,7.38333,4.26667,light rain,32.82,36.5,52,2.43,2024-03-07 13:29:48
Misau,11.3163,10.4703,overcast clouds,39.7,36.41,8,2.13,2024-03-07 13:29:49
Miringa,10.73115,12.14626,overcast clouds,38.45,35.62,11,0.41,2024-03-07 13:29:49
Minna,9.61389,6.55694,overcast clouds,37.49,39.56,33,2.98,2024-03-07 13:29:50
Imeko,7.45,2.85,overcast clouds,36.16,38.44,37,3.38,2024-03-07 13:29:51
Mayo-Belwa,9.05,12.05,overcast clouds,39.44,39.18,22,5.19,2024-03-07 13:29:52
Machina,13.13639,10.04924,overcast clouds,40.22,36.73,7,2.52,2024-03-07 13:29:53
Mashi,12.97844,7.95293,overcast clouds,39.52,37.24,14,1.98,2024-03-07 13:29:53
Maru,12.33417,6.40569,scattered clouds,40.45,38.55,15,4.14,2024-03-07 13:29:54
Marte,12.36113,13.8246,broken clouds,40.28,37.45,11,4.84,2024-03-07 13:29:55
Mando,10.71667,6.56667,overcast clouds,38.02,38.52,27,4.22,2024-03-07 13:29:56
Malumfashi,11.78529,7.62175,clear sky,39.25,36.93,14,0.99,2024-03-07 13:29:57
Mallammaduri,12.565,9.95729,broken clouds,40.4,36.89,7,1.31,2024-03-07 13:29:58
Makurdi,7.7411,8.5121,scattered clouds,39.65,42.46,30,2.83,2024-03-07 13:29:59
Maiyama,12.08411,4.36766,broken clouds,40.33,36.57,5,3.57,2024-03-07 13:30:00
Maitama,9.10306,7.49444,overcast clouds,32.74,32.28,34,3.63,2024-03-07 13:30:00
Maiduguri,11.84644,13.16027,broken clouds,42.35,38.59,7,6.69,2024-03-07 13:30:01
Mahuta,11.55254,4.98436,overcast clouds,28.83,31.52,65,1.78,2024-03-07 13:30:02
Magumeri,12.1131,12.8274,overcast clouds,42.19,38.45,7,5.61,2024-03-07 13:30:03
Madara,11.7798,10.4479,broken clouds,40.18,36.84,8,2.2,2024-03-07 13:30:04
Madala,9.10444,7.21333,few clouds,33.55,39.09,55,3.09,2024-03-07 13:30:06
Madagali,10.89018,13.63121,overcast clouds,39.64,36.35,8,4.51,2024-03-07 13:30:08
Lokoja,7.80236,6.743,overcast clouds,37.5,41.07,37,3.32,2024-03-07 13:30:09
Lere,10.38697,8.57262,overcast clouds,37.32,35.61,19,1.95,2024-03-07 13:30:10
Lere,9.70889,9.33833,overcast clouds,37.32,35.61,19,1.95,2024-03-07 13:30:10
Lau,9.21667,11.28333,overcast clouds,41.01,41.98,23,3.29,2024-03-07 13:30:11
Lapai,9.05,6.56667,overcast clouds,39.03,41.69,31,2.42,2024-03-07 13:30:12
Langtang,9.13333,9.78333,overcast clouds,39.72,39.92,23,2.36,2024-03-07 13:30:13
Lame,10.44154,9.23955,overcast clouds,39.13,36.62,13,3.35,2024-03-07 13:30:15
Lalupon,7.46667,4.06667,broken clouds,33.01,38.84,58,4.63,2024-03-07 13:30:16
Lagos State,6.58333,3.75,overcast clouds,33.18,39.61,59,3.19,2024-03-07 13:30:16
Lagos,6.45306,3.39583,overcast clouds,33.18,39.61,59,3.19,2024-03-07 13:30:17
Lafiagi,8.86667,5.41667,overcast clouds,39.41,42.42,31,3.19,2024-03-07 13:30:18
Lafia,8.48333,8.51667,overcast clouds,37.98,40.48,33,2.41,2024-03-07 13:30:19
Kwolla,8.93333,9.28333,overcast clouds,39.38,40.41,26,4.29,2024-03-07 13:30:20
Kwatarkwashi,12.14082,6.82196,scattered clouds,39.34,37.68,17,3.31,2024-03-07 13:30:21
Kwara State,8.5,5.0,overcast clouds,36.15,38.1,36,3.85,2024-03-07 13:30:22
Kwali,8.86722,7.005,overcast clouds,34.94,35.48,34,2.12,2024-03-07 13:30:23
Kwale,5.70632,6.43741,overcast clouds,33.85,37.74,49,3.11,2024-03-07 13:30:25
Kuyi,9.66667,6.45,broken clouds,37.67,39.89,33,3.13,2024-03-07 13:30:26
Kuta,9.86667,6.71667,broken clouds,30,37,84,3.6,2024-03-07 13:30:27
Kusheriki,10.53283,6.44222,overcast clouds,37.28,38.22,30,3.2,2024-03-07 13:30:28
Kura,11.76969,8.43033,clear sky,40.76,38.41,13,0.77,2024-03-07 13:30:29
Kumo,10.04469,11.21217,overcast clouds,39.27,38.93,22,2.6,2024-03-07 13:30:31
Kumagunnam,13.15514,10.63423,overcast clouds,41.18,37.57,7,3.18,2024-03-07 13:30:32
Kukawa,12.92342,13.56058,overcast clouds,38.53,35.83,12,5.86,2024-03-07 13:30:33
Kujama,10.45418,7.63678,few clouds,37.67,36.67,22,3.27,2024-03-07 13:30:34
Koton-Karfe,8.1,6.8,overcast clouds,38.04,41.36,35,3.11,2024-03-07 13:30:35
Kontagora,10.39989,5.46949,overcast clouds,39.55,38.47,19,2.71,2024-03-07 13:30:36
Konkwesso,10.84686,4.09835,overcast clouds,41.45,37.8,7,2.08,2024-03-07 13:30:37
Konduga,11.65583,13.42133,broken clouds,42.04,38.32,7,6.01,2024-03-07 13:30:39
Kisi,9.08333,3.85,scattered clouds,38.84,38.03,21,1.81,2024-03-07 13:30:40
Kibiya,11.52629,8.66227,clear sky,40.58,38.21,13,1.24,2024-03-07 13:30:42
Ketu Adieowe,6.6,3.06667,overcast clouds,32.95,36.48,51,4.38,2024-03-07 13:30:44
Kende,11.51966,4.2603,clear sky,40.54,36.87,6,3.53,2024-03-07 13:30:46
Kafin Hausa,12.23753,9.90798,scattered clouds,40.66,37.11,7,1.26,2024-03-07 13:30:49
Keffi,8.84861,7.87361,overcast clouds,37.7,39.6,32,2.33,2024-03-07 13:30:52
Kazaure,12.65131,8.41615,scattered clouds,40.49,37.67,11,0.86,2024-03-07 13:30:56
Kaura Namoda,12.58979,6.57791,few clouds,40.53,38.39,14,3.9,2024-03-07 13:30:58
Katsina State,12.25,7.5,few clouds,39.42,37.33,15,1.64,2024-03-07 13:30:59
Katsina-Ala,7.16667,9.28333,overcast clouds,34.54,37.25,43,4.8,2024-03-07 13:31:00
Katsina,12.98943,7.60063,broken clouds,39.32,37.01,14,2.67,2024-03-07 13:31:01
Katagum,12.2867,10.3527,clear sky,40.77,37.21,7,1.92,2024-03-07 13:31:02
Kari,11.2471,10.561,overcast clouds,39.79,36.49,8,1.98,2024-03-07 13:31:03
Kano State,11.5,8.5,clear sky,40.61,38.24,13,0.87,2024-03-07 13:31:04
Kano,12.00012,8.51672,broken clouds,39.65,37.38,14,0.92,2024-03-07 13:31:05
Kankara,11.93016,7.41267,clear sky,39.3,36.99,14,1.45,2024-03-07 13:31:06
Kamba,11.84864,3.65761,overcast clouds,40.3,36.67,6,2.48,2024-03-07 13:31:07
Kaltungo,9.81417,11.30889,broken clouds,38.2,37.4,22,3.56,2024-03-07 13:31:08
Kajuru,10.31921,7.68924,clear sky,37.71,36.73,22,3.16,2024-03-07 13:31:10
Kajul,10.03176,7.9981,overcast clouds,37.27,35.93,21,2.48,2024-03-07 13:31:11
Kangiwa,12.55208,3.81867,overcast clouds,40.29,36.54,5,3.08,2024-03-07 13:31:12
Kaiama,9.6225,3.94806,broken clouds,39.94,38.44,17,0.88,2024-03-07 13:31:13
Kagoro,9.6,8.38333,overcast clouds,35.36,34.77,28,2.44,2024-03-07 13:31:14
Kafarati,10.38304,11.09567,overcast clouds,38.82,37.04,17,1.74,2024-03-07 13:31:15
Kafanchan,9.58333,8.3,overcast clouds,35.99,35.45,27,2.72,2024-03-07 13:31:17
Kaduna State,10.33333,7.75,clear sky,37.95,37.05,22,3.09,2024-03-07 13:31:19
Kaduna,10.52224,7.43828,scattered clouds,37.68,37.17,24,3.38,2024-03-07 13:31:20
Kachia,9.86667,7.95,overcast clouds,37.42,36.56,23,2.79,2024-03-07 13:31:21
Kabba,7.82873,6.0731,overcast clouds,33.81,35.62,42,3.16,2024-03-07 13:31:22
Jos,9.91667,8.9,overcast clouds,34.12,32.19,21,1.78,2024-03-07 13:31:23
Jimeta,9.28333,12.46667,clear sky,40.13,44.81,33,7.72,2024-03-07 13:31:25
Jikamshi,12.17328,7.77424,scattered clouds,39.29,36.98,14,1.65,2024-03-07 13:31:25
Jibia,13.09778,7.2225,overcast clouds,38.82,36.46,14,2.04,2024-03-07 13:31:26
Jega,12.2175,4.37917,broken clouds,40.7,36.87,5,3.44,2024-03-07 13:31:27
Jebba,9.13333,4.83333,overcast clouds,40.58,41.28,23,1.31,2024-03-07 13:31:28
Jalingo,8.88333,11.36667,broken clouds,39.91,40.93,25,2.2,2024-03-07 13:31:29
Lajere,11.97969,11.44426,overcast clouds,41.61,37.76,6,3.7,2024-03-07 13:31:30
Jagun Elesin,7.35472,3.98333,broken clouds,33.15,39.18,58,4.63,2024-03-07 13:31:31
Iwo,7.63333,4.18333,broken clouds,32.84,34.42,44,3.28,2024-03-07 13:31:31
Itu,5.2004,7.98475,overcast clouds,25.51,25.79,64,2.79,2024-03-07 13:31:32
Isieke,6.37831,8.03524,overcast clouds,38.23,40.95,33,2.97,2024-03-07 13:31:33
Iseyin,7.96667,3.6,overcast clouds,34.74,37.03,41,3.7,2024-03-07 13:31:34
Ise-Ekiti,7.4632,5.4281,overcast clouds,33.43,36,46,2.73,2024-03-07 13:31:34
Isara,6.99281,3.68185,overcast clouds,34.08,37.58,47,3.06,2024-03-07 13:31:35
Isanlu-Itedoijowa,8.26667,5.83333,overcast clouds,36.67,38.73,35,3.66,2024-03-07 13:31:36
Ipoti,7.87377,5.07692,overcast clouds,31.68,33.56,49,2.67,2024-03-07 13:31:37
Iperu,6.91002,3.66557,overcast clouds,33.96,37.65,48,2.96,2024-03-07 13:31:38
Inisa,7.85,4.33333,scattered clouds,35.55,37.94,39,3.63,2024-03-07 13:31:39
Imo State,5.5,7.16667,light rain,33.89,36.89,46,1.98,2024-03-07 13:31:39
Ilorin,8.5,4.55,few clouds,36.2,41.89,46,6.69,2024-03-07 13:31:40
Ilobu,7.83333,4.48333,overcast clouds,35.71,38.57,40,3.58,2024-03-07 13:31:41
Illushi,6.6667,6.63076,overcast clouds,35.74,39.32,42,2.69,2024-03-07 13:31:42
Illela,13.72918,5.29752,overcast clouds,40.96,37.07,5,2.72,2024-03-07 13:31:43
Ilesa,7.61667,4.73333,overcast clouds,32.88,35.77,49,2.85,2024-03-07 13:31:44
Ilaro,6.88653,3.0205,overcast clouds,32.62,34.52,46,2.88,2024-03-07 13:31:44
Ilare,7.35067,5.11333,overcast clouds,33.32,36.07,47,2.03,2024-03-07 13:31:45
Ila Orangun,8.01667,4.9,overcast clouds,32.85,34.93,46,2.65,2024-03-07 13:31:46
Ikot Ekpene,5.17938,7.71082,light rain,34.24,37.91,47,2.95,2024-03-07 13:31:47
Ikom,5.96669,8.70632,overcast clouds,35.47,39.84,45,1.41,2024-03-07 13:31:48
Ikirun,7.91667,4.66667,overcast clouds,34.59,37.35,43,2.45,2024-03-07 13:31:49
Ikire,7.35,4.18333,light rain,33.11,36.81,51,2.33,2024-03-07 13:31:50
Ikere-Ekiti,7.49133,5.23225,overcast clouds,33.22,36.16,48,1.89,2024-03-07 13:31:51
Ikem,6.77903,7.71685,overcast clouds,37.91,40.72,34,3.57,2024-03-07 13:31:52
Ikeja,6.59422,3.33748,scattered clouds,32.94,39.94,62,7.72,2024-03-07 13:31:52
Ikang,4.78978,8.5316,overcast clouds,34.22,38.88,50,4.06,2024-03-07 13:31:53
Ijero-Ekiti,7.8139,5.0742,overcast clouds,32.18,34.7,50,2.39,2024-03-07 13:31:54
Ijebu-Ode,6.81609,3.91588,overcast clouds,32.77,36.69,53,2.47,2024-03-07 13:31:55
Ijebu-Jesa,7.68333,4.81667,overcast clouds,33.19,36.1,48,2.21,2024-03-07 13:31:55
Ijebu-Igbo,6.9798,4.00329,light rain,33.75,40.32,57,2.81,2024-03-07 13:31:56
Ijebu-Ife,6.77837,4.03386,overcast clouds,32.35,36.38,55,2.3,2024-03-07 13:31:57
Iho,5.56667,7.1,overcast clouds,33.93,36.97,46,2.02,2024-03-07 13:31:58
Ihiala,5.85377,6.86026,overcast clouds,33.11,36.81,51,2,2024-03-07 13:32:00
Igede-Ekiti,7.66676,5.13205,overcast clouds,31.42,33.33,50,2.3,2024-03-07 13:32:01
Igbo-Ukwu,6.01669,7.02654,overcast clouds,31.89,34.16,50,3.28,2024-03-07 13:32:02
Igbor,7.4527,8.6098,broken clouds,38.16,40.44,32,3.15,2024-03-07 13:32:02
Igbo-Ora,7.43333,3.28333,overcast clouds,35.25,38.33,42,3.5,2024-03-07 13:32:03
Igboho,8.83333,3.75,clear sky,37.68,37.43,25,2.2,2024-03-07 13:32:04
Igbeti,8.75,4.13333,few clouds,39.26,39.22,23,1.62,2024-03-07 13:32:05
Igbara-Odo,7.50251,5.06258,overcast clouds,32.94,35.89,49,1.79,2024-03-07 13:32:05
Igarra,7.2827,6.0878,overcast clouds,34.7,37.56,43,3.79,2024-03-07 13:32:06
Igabi,10.78887,7.77493,clear sky,38.96,37.93,20,3.13,2024-03-07 13:32:07
Ifon,6.92412,5.77603,overcast clouds,34.18,37.47,46,1.44,2024-03-07 13:32:08
Ifo,6.81437,3.19575,overcast clouds,32.79,34.34,44,3.31,2024-03-07 13:32:09
Ifira,10.70113,7.29455,broken clouds,38.3,37.54,22,3.69,2024-03-07 13:32:09
Ile-Ife,7.46667,4.56667,light rain,31.79,35.74,57,3,2024-03-07 13:32:10
Ifaki,7.78942,5.24852,overcast clouds,31.73,33.65,49,3.43,2024-03-07 13:32:11
Idiroko,6.63333,2.73333,overcast clouds,31.93,33.55,47,4.35,2024-03-07 13:32:12
Idanre,7.1127,5.1159,overcast clouds,33.94,36.4,44,2.11,2024-03-07 13:32:13
Idah,7.10651,6.73415,overcast clouds,37.24,40.54,37,2.66,2024-03-07 13:32:13
Icheu,7.7067,6.7718,overcast clouds,37.51,41.09,37,3.23,2024-03-07 13:32:14
Ibi,8.18333,9.75,scattered clouds,12.13,11.02,62,3.94,2024-03-07 13:32:15
Ibeto,10.48536,5.14502,scattered clouds,39.64,37.17,13,2.77,2024-03-07 13:32:16
Ibadan,7.38778,3.89639,broken clouds,32.94,38.67,58,4.63,2024-03-07 13:32:17
Hunkuyi,11.26676,7.65118,clear sky,38.41,36.35,16,2.97,2024-03-07 13:32:18
Holma,9.90083,13.05667,overcast clouds,37.56,35.54,17,0.58,2024-03-07 13:32:19
Hinna,10.30426,11.49905,overcast clouds,39.56,38.48,19,1.88,2024-03-07 13:32:19
Heipang,9.63333,8.88333,overcast clouds,32.69,30.95,24,1.26,2024-03-07 13:32:20
Hadejia,12.4498,10.0444,broken clouds,40.59,37.05,7,1.47,2024-03-07 13:32:21
Gwoza,11.10359,13.71298,overcast clouds,40.38,36.87,7,5.22,2024-03-07 13:32:22
Gwio Kura,12.6753,11.0682,overcast clouds,41.9,38.2,7,3.61,2024-03-07 13:32:23
Gwasero,9.48333,3.5,overcast clouds,39.87,38.9,19,1.07,2024-03-07 13:32:24
Gwarzo,11.91521,7.9346,clear sky,39.46,37.17,14,1.48,2024-03-07 13:32:25
Gwaram,11.27639,9.88583,clear sky,40.22,37.21,10,1.93,2024-03-07 13:32:25
Gwaram,10.23295,10.28572,clear sky,40.22,37.21,10,1.93,2024-03-07 13:32:26
Gwandu,12.49382,4.64227,broken clouds,40.77,37.06,6,3.05,2024-03-07 13:32:27
Gwadabawa,13.35612,5.23664,overcast clouds,40.95,37.06,5,2.72,2024-03-07 13:32:28
Gusau,12.16278,6.66135,scattered clouds,39.53,37.92,17,3.53,2024-03-07 13:32:29
Gummi,12.14358,5.10809,broken clouds,38.6,35.34,7,0.75,2024-03-07 13:32:29
Gumel,12.62791,9.39119,overcast clouds,40.12,36.65,7,1.87,2024-03-07 13:32:30
Gulma,12.64231,4.35545,broken clouds,40.92,37.04,5,3.21,2024-03-07 13:32:31
Gujba,11.5032,11.9367,scattered clouds,40.55,37.02,7,3.38,2024-03-07 13:32:32
Goronyo,13.44232,5.67632,broken clouds,40.97,37.22,6,2.97,2024-03-07 13:32:33
Gorgoram,12.6398,10.7039,broken clouds,41.34,37.71,7,1.98,2024-03-07 13:32:34
Gora,11.91294,7.6653,scattered clouds,5.71,2.06,48,5.37,2024-03-07 13:32:35
Goniri,11.48333,12.31444,overcast clouds,40.68,37.13,7,3.21,2024-03-07 13:32:36
Gombi,10.16138,12.7399,overcast clouds,39.35,36.51,11,0.08,2024-03-07 13:32:36
Gombe,10.28969,11.16729,overcast clouds,39.01,37.51,18,2.14,2024-03-07 13:32:37
Gidan Sarkin Gardi,12.07433,6.405,scattered clouds,39.93,38.17,16,4.02,2024-03-07 13:32:38
Gembu,6.7,11.26667,overcast clouds,32.34,30.43,22,0.98,2024-03-07 13:32:39
Geidam,12.897,11.9304,few clouds,42.14,38.41,7,5.38,2024-03-07 13:32:39
Gbongan,7.46667,4.35,light rain,32.89,36.94,53,2.8,2024-03-07 13:32:40
Gaya,11.86136,8.99714,clear sky,25.95,25.95,34,1.54,2024-03-07 13:32:41
Gassol,8.53333,10.46667,overcast clouds,39.77,41.46,27,4.23,2024-03-07 13:32:42
Gashua,12.871,11.0482,overcast clouds,41.83,38.13,7,4.05,2024-03-07 13:32:43
Garko,10.17506,11.16458,overcast clouds,38.98,37.96,20,2.33,2024-03-07 13:32:44
Ganye,8.43333,12.06667,overcast clouds,39.96,38.74,18,2.43,2024-03-07 13:32:45
Gandi,12.96358,5.74337,scattered clouds,40.59,37.05,7,2.72,2024-03-07 13:32:46
Gamboru,12.37066,14.21731,broken clouds,40.55,37.73,11,5.08,2024-03-07 13:32:46
Gamawa,12.1343,10.5396,scattered clouds,40.79,37.23,7,2.2,2024-03-07 13:32:47
Gakem,6.76578,8.98813,overcast clouds,33.83,36.77,46,4.52,2024-03-07 13:32:48
Gagarawa,12.40741,9.5277,overcast clouds,40.05,36.59,7,1.7,2024-03-07 13:32:49
Gabarin,11.1093,10.4441,broken clouds,39.67,36.52,9,2.32,2024-03-07 13:32:50
Funtua,11.52325,7.30813,few clouds,37.92,35.63,15,1.56,2024-03-07 13:32:51
Fili,8.43333,4.5,overcast clouds,2.16,-0.75,86,2.82,2024-03-07 13:32:51
Fiditi,7.71361,3.91722,overcast clouds,32.53,32.86,39,3.35,2024-03-07 13:32:52
Ezza-Ohu,6.4373,8.0862,overcast clouds,38.19,40.88,33,2.86,2024-03-07 13:32:53
Eyamba Town,4.44253,7.16747,broken clouds,30.27,35.45,69,4.31,2024-03-07 13:32:54
Etinan,4.84262,7.85252,light rain,32.56,37.14,56,3.58,2024-03-07 13:32:55
Ete,7.05,7.45,overcast clouds,34.88,37.29,41,3.53,2024-03-07 13:32:55
Esuk Oron,4.80293,8.25341,overcast clouds,32.01,37.4,61,3.17,2024-03-07 13:32:56
Epe,6.58412,3.98336,overcast clouds,32.12,37.05,59,3.56,2024-03-07 13:32:57
Enugu-Ukwu,6.17851,7.01156,overcast clouds,32.81,35.91,50,2.61,2024-03-07 13:32:58
Enugu-Ezike,6.9825,7.457,overcast clouds,34.5,36.59,41,3.38,2024-03-07 13:32:59
Enugu,6.4402,7.4943,overcast clouds,35.28,38.06,41,3.77,2024-03-07 13:32:59
Emure-Ekiti,7.43614,5.45932,overcast clouds,33.46,36.06,46,2.79,2024-03-07 13:33:00
Emene,6.4762,7.5851,overcast clouds,36.35,39.49,39,3.82,2024-03-07 13:33:01
Emagiti,9.06667,6.03333,overcast clouds,38.64,41.35,32,2.9,2024-03-07 13:33:02
Elelem,5.26566,7.14768,overcast clouds,32.84,34.42,44,2.34,2024-03-07 13:33:03
Elele,5.1009,6.81411,broken clouds,33.01,40.01,66,5.14,2024-03-07 13:33:04
Ekpoma,6.74206,6.139,overcast clouds,33.41,35.69,45,2.16,2024-03-07 13:33:05
Eket,4.64122,7.92092,overcast clouds,30.81,35.97,66,3.99,2024-03-07 13:33:06
Ejirin,6.61423,3.90019,overcast clouds,32.77,37.61,56,3.27,2024-03-07 13:33:07
Ejigbo,7.9,4.31667,scattered clouds,35.87,38.22,38,3.52,2024-03-07 13:33:08
Eha Amufu,6.65915,7.75961,overcast clouds,38.21,40.91,33,3.63,2024-03-07 13:33:08
Egbe,8.21667,5.51667,overcast clouds,34.53,36.08,39,2.45,2024-03-07 13:33:09
Efon-Alaaye,7.65,4.91667,overcast clouds,32.03,34.18,49,1.95,2024-03-07 13:33:10
Effium,6.62917,8.05925,overcast clouds,38.18,40.86,33,2.8,2024-03-07 13:33:11
Ebute Ikorodu,6.60086,3.48818,scattered clouds,33.18,40.18,62,7.72,2024-03-07 13:33:12
Dutsin-Ma,12.45167,7.49805,,,,,,2024-03-07 13:33:12
Dutsen Wai,10.85009,8.199,broken clouds,39.86,38.09,16,1.39,2024-03-07 13:33:13
Dutse,11.7594,9.33921,scattered clouds,40.29,37.28,10,1.59,2024-03-07 13:33:14
Duku,11.2361,4.90727,few clouds,39.75,36.21,6,2.47,2024-03-07 13:33:15
Dukku,10.82306,10.77167,overcast clouds,39.29,36.79,13,1.33,2024-03-07 13:33:16
Doma,8.38333,8.35,broken clouds,38.63,41.33,32,2.52,2024-03-07 13:33:17
Disina,11.48135,9.91903,clear sky,40.67,37.65,10,0.99,2024-03-07 13:33:18
Dindima,10.22629,10.15132,broken clouds,40.14,37.31,11,2.19,2024-03-07 13:33:18
Dillala,13.108,11.5703,broken clouds,41.78,38.09,7,5.49,2024-03-07 13:33:19
Dikwa,12.02396,13.91646,broken clouds,42.04,38.32,7,5.65,2024-03-07 13:33:20
Dengi,9.36667,9.95,broken clouds,40.43,39.99,20,2.14,2024-03-07 13:33:21
Dekina,7.69475,7.02218,overcast clouds,36.99,40.04,37,3.48,2024-03-07 13:33:22
Deba,10.20864,11.38586,overcast clouds,39.16,38.21,20,1.89,2024-03-07 13:33:23
Daura,13.03594,8.31631,overcast clouds,39.53,36.14,7,2.5,2024-03-07 13:33:24
Daura,11.5538,11.4085,overcast clouds,39.53,36.14,7,2.5,2024-03-07 13:33:24
Darazo,10.99375,10.41179,broken clouds,39.69,36.54,9,2.54,2024-03-07 13:33:25
Dapchi,12.4904,11.4944,overcast clouds,42.29,38.32,6,4.94,2024-03-07 13:33:26
Dan Sadau,11.29621,6.4952,clear sky,39.33,38.44,20,3.09,2024-03-07 13:33:27
Dankama,13.29782,7.79492,overcast clouds,39.95,37.51,13,1.64,2024-03-07 13:33:28
Dankalwa,11.7443,12.1867,broken clouds,41.76,38.07,7,4.04,2024-03-07 13:33:29
Danja,11.37643,7.56249,clear sky,38.02,35.9,16,2.29,2024-03-07 13:33:30
Dan Gora,11.53485,8.15224,clear sky,39.48,37.4,15,1.46,2024-03-07 13:33:30
Dange,12.85128,5.34705,broken clouds,40.43,36.92,7,2.44,2024-03-07 13:33:31
Damboa,11.15604,12.75758,clear sky,41.15,37.54,7,3.73,2024-03-07 13:33:32
Dambatta,12.43303,8.51541,few clouds,40.52,37.7,11,1.56,2024-03-07 13:33:33
Damaturu,11.747,11.9608,scattered clouds,41.92,38.21,7,4.06,2024-03-07 13:33:34
Damasak,13.09771,12.4952,clear sky,41.97,38.26,7,6.66,2024-03-07 13:33:35
Dakingari,11.64511,4.06046,scattered clouds,40.31,36.68,6,2.95,2024-03-07 13:33:35
Dadiya,9.61667,11.43333,overcast clouds,39.76,39.34,21,3.14,2024-03-07 13:33:36
Dabai,11.47652,5.20625,broken clouds,38.44,35.13,6,3.89,2024-03-07 13:33:37
Cross River State,5.75,8.5,broken clouds,34.7,38.54,46,2.38,2024-03-07 13:33:38
Tsafe,11.95527,6.92232,clear sky,38.74,36.95,17,2.94,2024-03-07 13:33:39
Calabar,4.9517,8.322,overcast clouds,33.05,37.6,54,1.99,2024-03-07 13:33:40
Burutu,5.35091,5.50758,overcast clouds,30.66,35.62,66,3.65,2024-03-07 13:33:41
Burumburum,11.39106,8.72341,clear sky,40.23,37.82,13,1.39,2024-03-07 13:33:42
Bunza,12.08444,4.02111,overcast clouds,40.35,36.59,5,2.87,2024-03-07 13:33:43
Bununu,9.86806,9.66278,overcast clouds,39.09,36.95,15,2.52,2024-03-07 13:33:43
Dass,10.0,9.51667,overcast clouds,38.42,36.19,15,3.79,2024-03-07 13:33:44
Bukuru,9.8,8.86667,overcast clouds,33.02,31.2,23,1.65,2024-03-07 13:33:46
Buguma,4.73407,6.86345,light rain,33.19,36.1,48,3.63,2024-03-07 13:33:47
Buga,8.49056,7.34139,scattered clouds,20.84,21.12,82,0.5,2024-03-07 13:33:48
Twon-Brass,4.31506,6.24176,overcast clouds,29.79,35.48,74,4.75,2024-03-07 13:33:48
Bornu Yassu,12.2774,12.5552,scattered clouds,42.46,38.69,7,5.98,2024-03-07 13:33:49
Borno State,11.5,13.0,scattered clouds,42.33,38.57,7,6.09,2024-03-07 13:33:50
Bori,4.67366,7.36201,overcast clouds,32.31,37.18,58,4.38,2024-03-07 13:33:51
Ugbokpo,7.6565,7.8664,overcast clouds,39.62,42.4,30,2.21,2024-03-07 13:33:52
Bonny,4.4522,7.16808,broken clouds,30.4,35.77,69,4.38,2024-03-07 13:33:53
Bomadi,5.15931,5.92516,broken clouds,33.03,37.88,55,3.36,2024-03-07 13:33:54
Bolori,11.88259,13.08901,overcast clouds,42.29,38.54,7,6.52,2024-03-07 13:33:54
Bokkos,9.3,9.0,broken clouds,32.35,30.88,27,3.68,2024-03-07 13:33:56
Bokani,9.43333,5.2,overcast clouds,39.41,40.11,25,4.08,2024-03-07 13:33:57
Boju,7.37834,7.91119,overcast clouds,38.62,40.92,31,3.01,2024-03-07 13:33:58
Boi,9.56833,9.49528,overcast clouds,36.68,34.84,19,3.39,2024-03-07 13:33:58
Bode Saadu,8.93333,4.78333,overcast clouds,39.19,40.45,27,2.33,2024-03-07 13:33:59
Biu,10.61285,12.19458,overcast clouds,37.43,34.73,12,0.88,2024-03-07 13:34:00
Birniwa,12.7903,10.2348,broken clouds,40.58,37.05,7,1.99,2024-03-07 13:34:01
Birnin Kudu,11.44588,9.4984,few clouds,40.24,37.41,11,1.61,2024-03-07 13:34:02
Birnin Kebbi,12.45389,4.1975,overcast clouds,40.39,36.62,5,2.73,2024-03-07 13:34:03
Sofo-Birnin-Gwari,11.01537,6.78036,scattered clouds,38.42,37.45,21,3.64,2024-03-07 13:34:04
Birim,10.062094,9.997027,scattered clouds,40.28,37.87,13,2.11,2024-03-07 13:34:05
Bin Yauri,10.7823,4.81135,clear sky,40.75,37.36,8,1.8,2024-03-07 13:34:06
Binji,13.22277,4.90955,broken clouds,41.03,37.13,5,3.34,2024-03-07 13:34:07
Billiri,9.86472,11.22528,broken clouds,37.66,36.89,23,3.43,2024-03-07 13:34:07
Bida,9.08333,6.01667,overcast clouds,38.86,41.77,32,2.85,2024-03-07 13:34:08
Benue State,7.33333,8.75,overcast clouds,37.76,40.06,33,3.34,2024-03-07 13:34:09
Benisheikh,11.8072,12.4909,overcast clouds,42.02,38.3,7,4.22,2024-03-07 13:34:10
Benin City,6.33504,5.62749,overcast clouds,34.27,38.31,48,3.2,2024-03-07 13:34:11
Bende,5.55718,7.63676,light rain,34.95,37.74,42,2.83,2024-03-07 13:34:12
Bena,11.28444,5.93472,few clouds,38.92,37.17,17,4.37,2024-03-07 13:34:13
Beli,7.85868,10.97187,overcast clouds,38.34,40.04,30,2,2024-03-07 13:34:14
Bebeji,11.66726,8.26217,clear sky,40.41,38.25,14,0.73,2024-03-07 13:34:14
Bauchi State,10.5,10.0,overcast clouds,40.77,37.75,10,2,2024-03-07 13:34:15
Bauchi,10.31344,9.84327,overcast clouds,40.77,37.75,10,2,2024-03-07 13:34:16
Batsari,12.75147,7.24472,clear sky,39.88,37.64,14,2.52,2024-03-07 13:34:17
Baro,8.6,6.41667,overcast clouds,39.78,42.71,30,1.9,2024-03-07 13:34:18
Bara,10.37444,10.72884,overcast clouds,39.88,38.63,18,0.78,2024-03-07 13:34:19
Bama,11.5221,13.68558,overcast clouds,41.69,38.01,7,5.87,2024-03-07 13:34:19
Bakori,11.55445,7.42425,clear sky,38.22,35.96,15,1.46,2024-03-07 13:34:20
Baissa,7.23333,10.63333,overcast clouds,36.85,39.41,36,4.18,2024-03-07 13:34:21
Bagudo,11.40329,4.22958,scattered clouds,40.8,37.08,6,3.59,2024-03-07 13:34:22
Bugana,7.99917,7.58361,overcast clouds,39.06,42.16,32,3.41,2024-03-07 13:34:23
Badeggi,9.05,6.15,broken clouds,39.09,42.22,32,3.14,2024-03-07 13:34:23
Badakoshi,10.54648,10.01186,overcast clouds,40.41,37.39,10,2.08,2024-03-07 13:34:24
Badagry,6.41667,2.88333,overcast clouds,31.62,36.49,61,4.43,2024-03-07 13:34:25
Babura,12.77305,9.01583,few clouds,40.32,36.82,7,2.46,2024-03-07 13:34:26
Babana,10.42949,3.81495,broken clouds,42.04,39.29,11,1.16,2024-03-07 13:34:27
Azare,11.6765,10.1948,clear sky,40.42,37.06,8,1.91,2024-03-07 13:34:28
Awka,6.21009,7.07411,overcast clouds,33.61,36.93,48,2.66,2024-03-07 13:34:29
Awgu,6.0742,7.4786,broken clouds,36.26,39.31,39,3.38,2024-03-07 13:34:30
Auna,10.18805,4.72318,few clouds,39.09,37.37,17,2.25,2024-03-07 13:34:31
Auchi,7.06667,6.26667,overcast clouds,34.94,37.72,42,3.8,2024-03-07 13:34:32
Asaba,6.20064,6.73384,overcast clouds,34.08,37.9,48,1.99,2024-03-07 13:34:33
Arochukwu,5.38979,7.91404,light rain,35.12,38.4,43,2.41,2024-03-07 13:34:34
Argungu,12.74334,4.52687,broken clouds,40.96,37.07,5,3.36,2024-03-07 13:34:35
Aramoko-Ekiti,7.70927,5.04474,overcast clouds,32.1,34.8,51,1.86,2024-03-07 13:34:35
Apomu,7.33333,4.18333,light rain,32.92,36.41,51,2.29,2024-03-07 13:34:36
Ankpa,7.37058,7.6253,overcast clouds,36.58,38.9,36,4.46,2024-03-07 13:34:37
Anka,12.11381,5.92427,overcast clouds,40.55,37.53,10,5.4,2024-03-07 13:34:38
Anchau,10.95967,8.39155,broken clouds,40.31,38.38,15,0.78,2024-03-07 13:34:39
Anambra State,6.33333,7.0,overcast clouds,33.41,36.83,49,2.55,2024-03-07 13:34:40
Amper,9.35,9.7,overcast clouds,39.01,38.27,21,2.67,2024-03-07 13:34:40
Amassoma,4.96917,6.10972,broken clouds,35.59,40.1,45,3.57,2024-03-07 13:34:41
Amaigbo,5.78917,7.83829,overcast clouds,36.98,40.02,37,2.22,2024-03-07 13:34:42
Amagunze,6.3267,7.6539,overcast clouds,37.07,40.2,37,3.66,2024-03-07 13:34:43
Aliade,7.2964,8.487,broken clouds,38.08,40.66,33,3.55,2024-03-07 13:34:44
Alapa,8.61667,4.38333,broken clouds,35.88,35.09,26,2.11,2024-03-07 13:34:45
Akwanga,8.91667,8.38333,overcast clouds,36.52,37.54,32,2.69,2024-03-07 13:34:46
Akwa Ibom State,5.0,7.83333,light rain,32.99,37.16,53,2.88,2024-03-07 13:34:46
Akure,7.25256,5.19312,overcast clouds,33.71,36.54,46,1.89,2024-03-07 13:34:47
Aku,6.7081,7.3167,overcast clouds,34.74,37.33,42,3.55,2024-03-07 13:34:48
Akko,10.28899,10.9732,scattered clouds,18.25,17.8,64,3.6,2024-03-07 13:34:49
Ake-Eze,5.91677,7.67615,broken clouds,37.24,40.54,37,2.63,2024-03-07 13:34:50
Akankpa,5.1264,8.1898,light rain,32.4,37.08,57,2.02,2024-03-07 13:34:52
Ajibo,7.46667,4.28333,light rain,32.84,36.25,51,2.76,2024-03-07 13:34:53
Ajasse Ipo,8.23333,4.81667,overcast clouds,35.58,38.99,42,2.93,2024-03-07 13:34:54
Ajaokuta,7.56229,6.65497,overcast clouds,37.26,40.97,38,2.96,2024-03-07 13:34:55
Ahoada,5.07395,6.65353,overcast clouds,33.14,35.2,45,1.82,2024-03-07 13:34:56
Agulu,6.11,7.0724,overcast clouds,33.52,36.75,48,2.98,2024-03-07 13:34:57
Ago-Are,8.5,3.41667,scattered clouds,36.83,37.76,31,3.16,2024-03-07 13:34:58
Agenebode,7.106,6.6966,overcast clouds,37.23,40.52,37,2.75,2024-03-07 13:34:59
Agbor,6.25183,6.19337,overcast clouds,35.42,39.01,43,3.13,2024-03-07 13:35:00
Agbabu,6.58862,4.8343,overcast clouds,33.65,38.29,52,3.53,2024-03-07 13:35:01
Agaie,9.01667,6.31667,broken clouds,39.46,42.52,31,3.11,2024-03-07 13:35:03
Afikpo,5.89312,7.93735,overcast clouds,36.9,39.5,36,2.3,2024-03-07 13:35:04
Adoru,6.97661,7.16268,overcast clouds,36.17,39.85,41,2.23,2024-03-07 13:35:05
Ado-Odo,6.6,2.93333,overcast clouds,33.12,36.53,50,4.39,2024-03-07 13:35:05
Ado-Ekiti,7.621,5.2215,overcast clouds,32.51,35.06,49,2.52,2024-03-07 13:35:06
Adani,6.73971,7.01117,overcast clouds,35.96,39.42,41,3.53,2024-03-07 13:35:07
Federal Capital Territory,8.83333,7.16667,overcast clouds,32.69,32.37,35,2.67,2024-03-07 13:35:08
Abuja,9.05735,7.48976,overcast clouds,33.08,32.74,34,3.75,2024-03-07 13:35:09
Abraka,5.79023,6.10473,overcast clouds,33.6,38.18,52,3.53,2024-03-07 13:35:10
Abocho,7.5677,6.9863,overcast clouds,34.88,36.7,39,3.4,2024-03-07 13:35:10
Abeokuta,7.15,3.35,overcast clouds,34.9,38.62,45,3.16,2024-03-07 13:35:12
Abakaliki,6.31625,8.11691,overcast clouds,38,40.89,34,3.26,2024-03-07 13:35:13
Abak,4.9797,7.79171,light rain,33.15,37.51,53,2.96,2024-03-07 13:35:14
Aba,5.10658,7.36667,light rain,32.79,35.33,48,2.98,2024-03-07 13:35:15
Abia State,5.41667,7.5,light rain,34.2,37.2,45,3.53,2024-03-07 13:35:16
Delta State,5.5,6.0,overcast clouds,32.14,37.4,60,2.61,2024-03-07 13:35:16
Adamawa State,9.33333,12.5,clear sky,39.64,43.77,33,7.72,2024-03-07 13:35:17
Edo,6.5,6.0,overcast clouds,35.7,39.24,42,2.22,2024-03-07 13:35:18
Enugu State,6.5,7.5,overcast clouds,35.31,38.12,41,3.8,2024-03-07 13:35:19
Jigawa State,12.0,9.75,few clouds,40.64,37.26,8,1.13,2024-03-07 13:35:20
Shogunle,6.57806,3.33444,scattered clouds,32.95,39.95,62,7.72,2024-03-07 13:35:21
Imogwu,4.98174,6.94338,light rain,33.01,40.01,66,5.14,2024-03-07 13:35:21
Degema Hulk,4.76254,6.752,light rain,33.18,35.27,45,3.6,2024-03-07 13:35:23
Orogbum,4.79071,7.01174,light rain,33.12,36.53,50,3.25,2024-03-07 13:35:25
Takurza,12.06425,8.53179,clear sky,40.29,37.67,12,1.88,2024-03-07 13:35:26
Bayelsa State,4.75,6.08333,scattered clouds,35.61,40.14,45,3.59,2024-03-07 13:35:26
Ebonyi State,6.25,8.08333,overcast clouds,37.89,40.68,34,3.47,2024-03-07 13:35:27
Ekiti State,7.66667,5.25,overcast clouds,32.82,35.93,50,2.91,2024-03-07 13:35:28
Gombe State,10.25,11.16667,overcast clouds,39.03,37.77,19,2.38,2024-03-07 13:35:29
Nasarawa State,8.5,8.25,overcast clouds,39.13,41.88,31,2.37,2024-03-07 13:35:30
Zamfara State,12.16667,6.25,broken clouds,40.37,38.45,15,4.49,2024-03-07 13:35:30
Kebbi State,11.5,4.0,clear sky,40.82,37.1,6,3.35,2024-03-07 13:35:31
Kogi State,7.75,6.75,overcast clouds,37.6,41.27,37,3.29,2024-03-07 13:35:32
Osun State,7.5,4.5,light rain,32.16,36.55,57,3.13,2024-03-07 13:35:33
Taraba State,8.0,10.5,overcast clouds,36.25,38.29,36,1.34,2024-03-07 13:35:34
Yobe State,12.0,11.5,overcast clouds,41.69,37.82,6,4.01,2024-03-07 13:35:34
Alodifi,7.2452,5.2956,overcast clouds,34.04,37.19,46,1.79,2024-03-07 13:35:36
Ishie Town,4.9936,8.3372,overcast clouds,32.44,37.17,57,1.89,2024-03-07 13:35:37
Hanwa,11.11861,7.70193,few clouds,38.55,36.93,18,2.48,2024-03-07 13:35:38
Sire,12.9299,5.20428,scattered clouds,40.69,36.99,6,2.97,2024-03-07 13:35:39
Afaha Oku,5.04827,7.9217,light rain,32.89,37.25,54,2.85,2024-03-07 13:35:40

City,Latitude,Longitude,Weather Description,Temperature (째C),Perceived Temperature (째C),Humidity (%),Wind Speed (m/s),Timestamp
Zuru,11.42406,5.22879,broken clouds,38.22,35.01,7,1.82,2024-03-07 16:50:19
Zungeru,9.81278,6.15583,overcast clouds,39.91,39.88,22,3.42,2024-03-07 16:50:19
Zaria,11.11128,7.7227,broken clouds,33.15,31.91,28,2.45,2024-03-07 16:50:20
Zango,13.05151,8.48765,scattered clouds,37.96,35.03,10,3.71,2024-03-07 16:50:21
Zalanga,10.61432,10.17647,scattered clouds,36.42,33.74,12,2.61,2024-03-07 16:50:22
Zaki Biam,7.51667,9.61667,overcast clouds,35.73,37.35,36,3.69,2024-03-07 16:50:23
Zadawa,11.4496,10.3672,broken clouds,36.1,33.37,11,2.09,2024-03-07 16:50:24
Yuli,9.69889,10.27444,broken clouds,38.39,36.94,19,3.59,2024-03-07 16:50:24
Yola,9.2,12.48333,overcast clouds,38.03,37.41,23,3.37,2024-03-07 16:50:25
Yenagoa,4.92472,6.26417,heavy intensity rain,27.6,31.38,82,1.77,2024-03-07 16:50:26
Yelwa,8.83333,9.63333,overcast clouds,38.16,38.15,25,3.27,2024-03-07 16:50:27
Yashikira,9.76667,3.4,broken clouds,38.31,36.06,15,0.63,2024-03-07 16:50:28
Yandev,7.36667,9.05,overcast clouds,34.73,36.44,39,5.71,2024-03-07 16:50:29
Yanda Bayo,11.5071,10.7459,overcast clouds,34.84,32.25,12,0.73,2024-03-07 16:50:29
Yamrat,10.11161,9.82604,scattered clouds,37.25,34.55,12,2.61,2024-03-07 16:50:30
Yajiwa,11.38385,12.7236,broken clouds,37.86,34.77,8,3.06,2024-03-07 16:50:31
Wuyo,10.38522,11.69678,broken clouds,37.93,35.98,17,2.05,2024-03-07 16:50:32
Wusasa,11.07543,7.67925,broken clouds,32.97,31.69,28,2.27,2024-03-07 16:50:33
Wurno,13.28777,5.42326,overcast clouds,39.34,36.09,8,1.96,2024-03-07 16:50:33
Wukari,7.85,9.78333,overcast clouds,35.7,37.29,36,2.57,2024-03-07 16:50:34
Wudil,11.81067,8.84505,scattered clouds,38.75,35.91,11,3.73,2024-03-07 16:50:35
Wawa,9.90222,4.41917,broken clouds,37.61,36.16,20,2.04,2024-03-07 16:50:36
Wauro Jabbe,9.26667,12.41667,overcast clouds,38.03,37.41,23,3.2,2024-03-07 16:50:36
Wasagu,11.3764,5.79536,scattered clouds,37.58,34.47,7,3.39,2024-03-07 16:50:37
Warri,5.51667,5.75,overcast clouds,30.37,34.7,65,3.88,2024-03-07 16:50:38
Wamba,8.93333,8.6,light rain,28.55,30.16,59,2.6,2024-03-07 16:50:40
Walmayo,7.7315,8.5441,broken clouds,39.53,39.96,24,1.55,2024-03-07 16:50:41
Wagini,12.68781,7.19579,scattered clouds,37.73,35.74,17,2.51,2024-03-07 16:50:42
Vom,9.73333,8.78333,overcast clouds,29.68,28.53,31,2.13,2024-03-07 16:50:42
Uyo,5.03333,7.92657,overcast clouds,32,36.78,59,2.43,2024-03-07 16:50:43
Uruobo-Okija,5.90016,6.84312,overcast clouds,34.04,36.89,45,2.52,2024-03-07 16:50:44
Uromi,6.7,6.33333,moderate rain,28.64,30.58,61,3.23,2024-03-07 16:50:45
Umunede,6.26374,6.31161,light rain,29.98,32.6,59,2.39,2024-03-07 16:50:47
Umuahia,5.52627,7.48959,overcast clouds,32.97,35.95,49,3.04,2024-03-07 16:50:47
Ukata,10.83122,5.82494,broken clouds,37.49,34.68,11,3.07,2024-03-07 16:50:48
Ughelli,5.48986,6.00743,light rain,30.77,35.35,64,3.09,2024-03-07 16:50:49
Ugep,5.8086,8.0812,overcast clouds,33.31,36.62,49,3.49,2024-03-07 16:50:50
Uga Soja,7.7124,8.6137,broken clouds,39.23,39.82,25,1.85,2024-03-07 16:50:51
Uga,5.93576,7.0793,overcast clouds,32.93,35.07,46,2.47,2024-03-07 16:50:51
Udi,6.3144,7.4258,overcast clouds,32.22,33.39,44,3.61,2024-03-07 16:50:52
Ubiaja,6.65504,6.38687,moderate rain,29.5,32.08,61,3.13,2024-03-07 16:50:53
Uba,10.45306,13.22139,broken clouds,28.21,32.14,77,1.67,2024-03-07 16:50:54
Tungan Ali,9.00556,7.22194,broken clouds,36.56,36.77,29,3.04,2024-03-07 16:50:54
Toungo,8.11667,12.05,overcast clouds,34.33,34.32,33,2.82,2024-03-07 16:50:55
Tokombere,11.22713,13.48581,overcast clouds,36.97,34.11,10,2.84,2024-03-07 16:50:56
Tegina,10.0706,6.1906,overcast clouds,38.55,38.16,23,2.13,2024-03-07 16:50:57
Tambuwal,12.40386,4.64692,broken clouds,39.64,36.12,6,3.05,2024-03-07 16:50:58
Talata Mafara,12.57317,6.05971,overcast clouds,38.49,35.25,7,4.18,2024-03-07 16:50:58
Takum,7.26667,9.98333,overcast clouds,32.68,34.15,44,2.92,2024-03-07 16:50:59
Takai,11.58333,9.11667,broken clouds,37.99,35.28,12,3.2,2024-03-07 16:51:00
Suya,9.46667,3.18333,broken clouds,37.39,35.88,20,1.62,2024-03-07 16:51:01
Suleja,9.17583,7.18083,broken clouds,35.83,35.9,30,3.39,2024-03-07 16:51:01
Sokoto State,13.08333,5.25,broken clouds,39.43,36.17,8,1.9,2024-03-07 16:51:02
Sokoto,13.06092,5.23902,broken clouds,39.22,35.98,8,1.92,2024-03-07 16:51:03
Soba,10.98134,8.05749,broken clouds,33.48,32.04,26,2.88,2024-03-07 16:51:04
Siluko,6.53858,5.1609,light rain,31.51,35.96,60,2.76,2024-03-07 16:51:05
Shinkafi,13.07534,6.51046,overcast clouds,38.73,35.89,11,4.08,2024-03-07 16:51:05
Shani,10.21617,12.06198,overcast clouds,37.19,35.63,20,0.98,2024-03-07 16:51:06
Shanga,11.21062,4.57878,broken clouds,40.26,36.64,6,2.22,2024-03-07 16:51:07
Saki,8.66667,3.38333,broken clouds,35.18,34.72,29,2.83,2024-03-07 16:51:08
Shagamu,6.84323,3.64776,overcast clouds,30.76,34.11,59,3.28,2024-03-07 16:51:09
Shaffa,10.50673,12.33315,overcast clouds,35.55,32.97,13,0.58,2024-03-07 16:51:10
Sauri,11.72655,6.78374,broken clouds,36.72,35.23,21,4.23,2024-03-07 16:51:11
Sapele,5.89405,5.67666,overcast clouds,30.86,35.04,62,3.81,2024-03-07 16:51:12
Samamiya,11.34873,9.63989,broken clouds,37.46,34.65,11,2.43,2024-03-07 16:51:12
Sade,11.3595,10.6732,broken clouds,35.55,32.86,11,0.94,2024-03-07 16:51:13
Runka,12.44788,7.30918,broken clouds,37.97,36.02,17,1.54,2024-03-07 16:51:14
Ruma,12.8626,7.23469,overcast clouds,5.84,2.88,82,4.02,2024-03-07 16:51:15
Rivers State,4.74974,6.82766,light rain,31.55,36.04,60,4.32,2024-03-07 16:51:16
Riti,7.91667,9.61667,overcast clouds,36.34,37.82,34,2.29,2024-03-07 16:51:17
Ringim,12.15482,9.16192,scattered clouds,37.72,34.72,9,3.31,2024-03-07 16:51:17
Rijau,11.10298,5.25068,scattered clouds,38.29,35.01,6,2.94,2024-03-07 16:51:18
Rano,11.54912,8.57464,broken clouds,37.32,34.97,15,0.68,2024-03-07 16:51:19
Saminaka,10.41403,8.68279,broken clouds,34.82,32.85,20,0.63,2024-03-07 16:51:20
Rabah,13.12133,5.50741,overcast clouds,39.08,35.85,8,3.25,2024-03-07 16:51:22
Potiskum,11.7091,11.0694,overcast clouds,36.29,33.49,10,2.2,2024-03-07 16:51:23
Port Harcourt,4.77742,7.0134,light rain,31.34,36.12,62,4.21,2024-03-07 16:51:24
Plateau State,9.16667,9.75,broken clouds,36.29,35.44,25,4.2,2024-03-07 16:51:25
Pindiga,9.98333,10.93333,broken clouds,36.72,34.89,19,1.56,2024-03-07 16:51:27
Patigi,8.73333,5.75,light rain,36.9,38.18,32,2.74,2024-03-07 16:51:28
Patani,5.22724,6.19238,moderate rain,30.04,34.66,68,3.08,2024-03-07 16:51:29
Panyam,9.41667,9.21667,overcast clouds,29.24,28.85,40,3.45,2024-03-07 16:51:29
Pankshin,9.33333,9.45,broken clouds,31.01,29.49,27,2.33,2024-03-07 16:51:30
Ozubulu,5.95666,6.84904,overcast clouds,33.85,36.23,44,2.49,2024-03-07 16:51:31
Oyo State,8.0,4.0,overcast clouds,34.78,35.98,37,4.84,2024-03-07 16:51:32
Oyo,7.85,3.93333,overcast clouds,34.37,35.81,39,4.42,2024-03-07 16:51:32
Oyan,8.05,4.76667,overcast clouds,31.46,33.84,52,3.53,2024-03-07 16:51:33
Owode,6.94864,3.50511,overcast clouds,31.01,33.68,55,3.03,2024-03-07 16:51:34
Owo,7.1962,5.58681,light rain,29.58,32.42,62,3.68,2024-03-07 16:51:35
Owerri,5.48333,7.03041,overcast clouds,33.08,36.75,51,3.44,2024-03-07 16:51:35
Otukpa,7.08921,7.64989,overcast clouds,32.65,33.87,43,4.73,2024-03-07 16:51:36
Otta,6.66667,3.73333,clear sky,-3.69,-5.93,90,1.48,2024-03-07 16:51:37
Osogbo,7.76667,4.56667,overcast clouds,32.5,35.3,50,2.95,2024-03-07 16:51:38
Oron,4.82561,8.23434,broken clouds,30.43,35.58,68,3.52,2024-03-07 16:51:38
Orodo,5.61667,7.03333,overcast clouds,32.84,35.69,49,3.15,2024-03-07 16:51:39
Orlu,5.79464,7.03495,overcast clouds,32.84,35.43,48,2.7,2024-03-07 16:51:40
Orita Eruwa,7.55,3.43333,broken clouds,34.91,36.2,37,4.48,2024-03-07 16:51:41
Orerokpe,5.63506,5.88956,overcast clouds,31.1,35.32,61,3.49,2024-03-07 16:51:42
Ore,6.74569,4.87748,overcast clouds,30.83,34.73,61,2.53,2024-03-07 16:51:42
Opi,6.7814,7.4365,overcast clouds,30.58,31.76,49,3.95,2024-03-07 16:51:43
Onitsha,6.14543,6.78845,overcast clouds,34.27,37.34,45,3.07,2024-03-07 16:51:47
Ondo State,7.16667,5.08333,light rain,29.14,32.47,67,2.41,2024-03-07 16:51:49
Ondo,7.1,4.83333,overcast clouds,30.22,33.69,62,2.53,2024-03-07 16:51:51
Omuo-Ekiti,7.75833,5.72227,overcast clouds,31.38,32.65,47,3.64,2024-03-07 16:51:52
Omu-Aran,8.13333,5.1,overcast clouds,31.6,33,47,3.23,2024-03-07 16:51:52
Omoku,5.3435,6.65321,light rain,31.86,36.46,59,2.64,2024-03-07 16:51:53
Olupona,7.6,4.18333,broken clouds,32.94,35.89,49,3.43,2024-03-07 16:51:55
Okuta,9.21667,3.18333,broken clouds,37.13,35.95,22,1.88,2024-03-07 16:51:57
Okrika,4.74159,7.08488,light rain,31.13,36.19,64,4.47,2024-03-07 16:51:59
Oko,6.2995,5.59383,overcast clouds,31.97,35.58,55,3.12,2024-03-07 16:52:00
Okigwe,5.83523,7.35989,overcast clouds,32.89,35.52,48,2.94,2024-03-07 16:52:01
Oke Mesi,7.81667,4.91667,overcast clouds,29.98,32.22,57,2.3,2024-03-07 16:52:02
Okeho,8.03333,3.35,overcast clouds,35.09,34.8,30,2.27,2024-03-07 16:52:03
Ohunene,7.46614,6.66587,light rain,34.29,37.07,44,5.04,2024-03-07 16:52:04
Ohafia-Ifigh,5.61455,7.81191,overcast clouds,32.96,36.21,50,2.52,2024-03-07 16:52:05
Ogwashi-Uku,6.17818,6.52429,overcast clouds,31.9,34.42,51,2.9,2024-03-07 16:52:09
Oguta,5.7089,6.81026,overcast clouds,34.17,37.77,47,2.67,2024-03-07 16:52:12
Ogurugu,6.78558,6.95053,overcast clouds,33.98,37.07,46,2.46,2024-03-07 16:52:13
Ogun State,7.0,3.58333,overcast clouds,31.36,34.35,55,2.91,2024-03-07 16:52:14
Ogoja,6.65471,8.79764,overcast clouds,33.05,36.1,49,4.28,2024-03-07 16:52:15
Ogbomoso,8.13333,4.26667,broken clouds,33.83,35.65,42,4.99,2024-03-07 16:52:16
Ogaminana,7.59464,6.22476,overcast clouds,33.98,36.2,43,3.36,2024-03-07 16:52:17
Offa,8.15,4.71667,overcast clouds,31.48,33.65,51,4.01,2024-03-07 16:52:19
Ode,7.7899,5.7117,overcast clouds,31.48,32.81,47,3.41,2024-03-07 16:52:19
Ochobo,7.183,7.9769,overcast clouds,36.93,38.55,33,3.62,2024-03-07 16:52:20
Obudu,6.66737,9.17157,light rain,29.25,31.63,61,2.57,2024-03-07 16:52:21
Obubra,6.07525,8.32904,overcast clouds,33.23,36.46,49,4.23,2024-03-07 16:52:22
Obonoma,4.70844,6.79307,overcast clouds,31.34,35.85,61,4.41,2024-03-07 16:52:23
Obolo-Eke (1),6.88333,7.63333,overcast clouds,33,34.95,45,4.65,2024-03-07 16:52:24
Obiaruku,5.84671,6.15257,overcast clouds,32.42,36.24,54,3.41,2024-03-07 16:52:24
Numan,9.46667,12.03333,overcast clouds,37.62,37.08,24,1.77,2024-03-07 16:52:25
Nsukka,6.8561,7.3927,overcast clouds,31,32.42,49,3.88,2024-03-07 16:52:26
Nnewi,6.01986,6.91478,overcast clouds,33.83,36.2,44,2.45,2024-03-07 16:52:27
Nkwerre,5.75555,7.10627,overcast clouds,32.66,35.35,49,2.86,2024-03-07 16:52:28
Nkpor,6.15164,6.84458,overcast clouds,33.71,35.97,44,2.88,2024-03-07 16:52:28
Niger State,10.0,6.0,overcast clouds,39.39,39.11,22,3.42,2024-03-07 16:52:29
Federal Republic of Nigeria,10.0,8.0,broken clouds,32.55,31.73,32,3.61,2024-03-07 16:52:30
Nguru,12.8791,10.4526,broken clouds,38.2,35.16,9,2.72,2024-03-07 16:52:31
Ngurore,9.28333,12.23333,overcast clouds,37.53,36.95,24,2.84,2024-03-07 16:52:32
Ngala,12.33772,14.18052,broken clouds,35.93,33.84,18,1.07,2024-03-07 16:52:33
New Shagunnu,10.33957,4.4688,broken clouds,34.71,34.26,30,2.61,2024-03-07 16:52:34
Nasarawa,8.52944,7.72417,broken clouds,37.83,38.51,28,2.65,2024-03-07 16:52:35
Nafada,11.0956,11.3327,broken clouds,38.12,35.55,13,1.3,2024-03-07 16:52:36
Mutum Biyu,8.63333,10.76667,broken clouds,38.05,38.56,27,3.3,2024-03-07 16:52:37
Musawa,12.12717,7.6698,scattered clouds,37.85,35.55,15,1.02,2024-03-07 16:52:37
Mubi,10.26761,13.26436,broken clouds,34.52,31.96,12,1.4,2024-03-07 16:52:38
Moriki,12.87405,6.48754,overcast clouds,38.74,35.77,10,4.94,2024-03-07 16:52:39
Monguno,12.67863,13.60792,overcast clouds,33.07,31.26,23,4.26,2024-03-07 16:52:40
Mokwa,9.28333,5.05,overcast clouds,38.67,38.06,22,1.26,2024-03-07 16:52:41
Modakeke,7.38333,4.26667,overcast clouds,32.1,35.31,53,2.7,2024-03-07 16:52:42
Misau,11.3163,10.4703,broken clouds,36.11,33.38,11,1.76,2024-03-07 16:53:47
Miringa,10.73115,12.14626,overcast clouds,35.68,33.04,12,0.43,2024-03-07 16:53:48
Minna,9.61389,6.55694,overcast clouds,37.62,37.6,26,2.14,2024-03-07 16:53:49
Imeko,7.45,2.85,overcast clouds,34.27,35.9,40,4.64,2024-03-07 16:53:50
Mayo-Belwa,9.05,12.05,overcast clouds,36.42,35.84,26,2.34,2024-03-07 16:53:51
Machina,13.13639,10.04924,broken clouds,36.47,33.65,10,1.43,2024-03-07 16:53:51
Mashi,12.97844,7.95293,scattered clouds,37.88,35.58,15,1.65,2024-03-07 16:53:52
Maru,12.33417,6.40569,broken clouds,38.72,35.75,10,5.23,2024-03-07 16:53:53
Marte,12.36113,13.8246,broken clouds,34.03,32.19,22,3.97,2024-03-07 16:53:54
Mando,10.71667,6.56667,overcast clouds,35.12,34.64,29,0.98,2024-03-07 16:53:54
Malumfashi,11.78529,7.62175,scattered clouds,37.14,35.06,17,4.11,2024-03-07 16:53:55
Mallammaduri,12.565,9.95729,scattered clouds,36.77,33.93,10,1.59,2024-03-07 16:53:56
Makurdi,7.7411,8.5121,broken clouds,39.5,39.92,24,1.43,2024-03-07 16:53:57
Maiyama,12.08411,4.36766,broken clouds,39.65,36.13,6,3.27,2024-03-07 16:53:58
Maitama,9.10306,7.49444,broken clouds,35.03,34.93,31,3.79,2024-03-07 16:53:59
Maiduguri,11.84644,13.16027,broken clouds,37.44,34.4,8,2.9,2024-03-07 16:53:59
Mahuta,11.55254,4.98436,overcast clouds,22.51,23.24,93,1.73,2024-03-07 16:54:00
Magumeri,12.1131,12.8274,overcast clouds,37.13,34.19,9,3.35,2024-03-07 16:54:01
Madara,11.7798,10.4479,scattered clouds,35.98,33.21,10,1.75,2024-03-07 16:54:02
Madala,9.10444,7.21333,broken clouds,35.79,35.84,30,3.23,2024-03-07 16:54:03
Madagali,10.89018,13.63121,overcast clouds,36.15,33.36,10,3.38,2024-03-07 16:54:03
Lokoja,7.80236,6.743,overcast clouds,37.63,39.13,31,3.69,2024-03-07 16:54:04
Lere,10.38697,8.57262,broken clouds,35.08,33.26,21,1.54,2024-03-07 16:54:05
Lere,9.70889,9.33833,broken clouds,35.08,33.26,21,1.54,2024-03-07 16:54:06
Lau,9.21667,11.28333,broken clouds,39.58,38.79,20,1.62,2024-03-07 16:54:07
Lapai,9.05,6.56667,overcast clouds,38.09,38.63,27,0.31,2024-03-07 16:54:08
Langtang,9.13333,9.78333,broken clouds,37.4,37.01,25,4.13,2024-03-07 16:54:10
Lame,10.44154,9.23955,overcast clouds,36.11,33.52,13,2.62,2024-03-07 16:54:14
Lalupon,7.46667,4.06667,overcast clouds,32.93,35.87,49,3.38,2024-03-07 16:54:16
Lagos State,6.58333,3.75,overcast clouds,29.47,34,71,3.48,2024-03-07 16:54:17
Lagos,6.45306,3.39583,overcast clouds,29.47,34,71,3.48,2024-03-07 16:54:18
Lafiagi,8.86667,5.41667,overcast clouds,38.53,39.68,28,2.34,2024-03-07 16:54:19
Lafia,8.48333,8.51667,overcast clouds,37.93,38.37,27,0.82,2024-03-07 16:54:20
Kwolla,8.93333,9.28333,overcast clouds,34.46,35.7,38,3.61,2024-03-07 16:54:21
Kwatarkwashi,12.14082,6.82196,scattered clouds,38.75,36.96,17,2.85,2024-03-07 16:54:21
Kwara State,8.5,5.0,overcast clouds,35.49,36.11,33,2.64,2024-03-07 16:54:22
Kwali,8.86722,7.005,overcast clouds,37.7,38.3,28,1.89,2024-03-07 16:54:23
Kwale,5.70632,6.43741,overcast clouds,33.49,36.99,49,3.12,2024-03-07 16:54:24
Kuyi,9.66667,6.45,overcast clouds,37.98,37.87,25,2,2024-03-07 16:54:24
Kuta,9.86667,6.71667,broken clouds,25.56,26.78,100,0.51,2024-03-07 16:54:25
Kusheriki,10.53283,6.44222,overcast clouds,36.69,36,25,2.03,2024-03-07 16:54:26
Kura,11.76969,8.43033,broken clouds,37.69,35.38,15,0.38,2024-03-07 16:54:27
Kumo,10.04469,11.21217,scattered clouds,37.02,35.08,18,1.14,2024-03-07 16:54:28
Kumagunnam,13.15514,10.63423,overcast clouds,37.03,34.17,10,1.54,2024-03-07 16:54:28
Kukawa,12.92342,13.56058,broken clouds,33.04,30.91,19,4.06,2024-03-07 16:54:29
Kujama,10.45418,7.63678,broken clouds,32.39,31.67,33,1.98,2024-03-07 16:54:30
Koton-Karfe,8.1,6.8,overcast clouds,37.87,39.22,30,2.46,2024-03-07 16:54:33
Kontagora,10.39989,5.46949,overcast clouds,38.13,35.56,13,3.4,2024-03-07 16:54:33
Konkwesso,10.84686,4.09835,broken clouds,39.96,36.51,7,2.19,2024-03-07 16:54:35
Konduga,11.65583,13.42133,broken clouds,37.48,34.51,9,3.2,2024-03-07 16:54:35
Kisi,9.08333,3.85,scattered clouds,37.65,36.42,21,1.49,2024-03-07 16:54:36
Kibiya,11.52629,8.66227,broken clouds,37.56,35.1,14,0.78,2024-03-07 16:54:37
Ketu Adieowe,6.6,3.06667,broken clouds,31.7,35.29,56,4.31,2024-03-07 16:54:38
Kende,11.51966,4.2603,broken clouds,40.3,36.67,6,2.38,2024-03-07 16:54:38
Kafin Hausa,12.23753,9.90798,few clouds,36.92,34.07,10,1.14,2024-03-07 16:54:39
Keffi,8.84861,7.87361,broken clouds,37.27,37.62,28,2.78,2024-03-07 16:54:40
Kazaure,12.65131,8.41615,scattered clouds,38.57,35.73,11,4.01,2024-03-07 16:54:41
Kaura Namoda,12.58979,6.57791,broken clouds,38.7,36,12,4.57,2024-03-07 16:54:44
Katsina State,12.25,7.5,few clouds,38.12,35.69,14,2.06,2024-03-07 16:54:44
Katsina-Ala,7.16667,9.28333,overcast clouds,33.44,35.75,45,4.82,2024-03-07 16:54:46
Katsina,12.98943,7.60063,few clouds,37.95,35.66,15,1.19,2024-03-07 16:54:46
Katagum,12.2867,10.3527,clear sky,37.37,34.48,10,1.37,2024-03-07 16:54:48
Kari,11.2471,10.561,broken clouds,36.3,33.5,10,1.74,2024-03-07 16:54:49
Kano State,11.5,8.5,broken clouds,37.33,35.13,16,2.48,2024-03-07 16:54:49
Kano,12.00012,8.51672,few clouds,38.43,35.87,13,2.66,2024-03-07 16:54:50
Kankara,11.93016,7.41267,scattered clouds,37.48,35.29,16,2.1,2024-03-07 16:54:51
Kamba,11.84864,3.65761,overcast clouds,40.11,36.51,6,3.09,2024-03-07 16:54:52
Kaltungo,9.81417,11.30889,scattered clouds,36.45,34.72,20,1.38,2024-03-07 16:54:53
Kajuru,10.31921,7.68924,broken clouds,31.24,30.66,36,2.07,2024-03-07 16:54:54
Kajul,10.03176,7.9981,overcast clouds,32.48,31.64,32,3.57,2024-03-07 16:54:55
Kangiwa,12.55208,3.81867,overcast clouds,39.09,35.67,6,4.13,2024-03-07 16:54:56
Kaiama,9.6225,3.94806,scattered clouds,38.91,36.94,16,1.18,2024-03-07 16:54:56
Kagoro,9.6,8.38333,broken clouds,30.61,30.42,40,3.78,2024-03-07 16:54:57
Kafarati,10.38304,11.09567,broken clouds,36.48,34.32,17,1.79,2024-03-07 16:54:58
Kafanchan,9.58333,8.3,broken clouds,31.05,30.98,40,4.95,2024-03-07 16:54:59
Kaduna State,10.33333,7.75,broken clouds,31.57,30.93,35,2.33,2024-03-07 16:55:00
Kaduna,10.52224,7.43828,overcast clouds,32.59,32.08,34,3.59,2024-03-07 16:55:00
Kachia,9.86667,7.95,broken clouds,33.28,32.5,31,3.95,2024-03-07 16:55:01
Kabba,7.82873,6.0731,overcast clouds,32.99,34.21,42,3.94,2024-03-07 16:55:02
Jos,9.91667,8.9,overcast clouds,30.87,29.16,24,0.8,2024-03-07 16:55:03
Jimeta,9.28333,12.46667,overcast clouds,38.28,37.51,22,3.14,2024-03-07 16:55:03
Jikamshi,12.17328,7.77424,scattered clouds,37.9,35.61,15,1.41,2024-03-07 16:55:05
Jibia,13.09778,7.2225,overcast clouds,38.31,36.24,16,1.01,2024-03-07 16:55:06
Jega,12.2175,4.37917,broken clouds,39.69,36.16,6,3.09,2024-03-07 16:55:07
Jebba,9.13333,4.83333,overcast clouds,39.1,38.98,23,1.22,2024-03-07 16:55:08
Jalingo,8.88333,11.36667,broken clouds,38.19,37.91,24,1.08,2024-03-07 16:55:09
Lajere,11.97969,11.44426,overcast clouds,36.96,34.04,9,2.82,2024-03-07 16:55:10
Jagun Elesin,7.35472,3.98333,overcast clouds,32.47,35.51,51,3.72,2024-03-07 16:55:11
Iwo,7.63333,4.18333,broken clouds,33.06,36.12,49,3.6,2024-03-07 16:55:12
Itu,5.2004,7.98475,broken clouds,28.88,30.83,60,3.9,2024-03-07 16:55:12
Isieke,6.37831,8.03524,overcast clouds,35.57,38.3,40,5.69,2024-03-07 16:55:13
Iseyin,7.96667,3.6,overcast clouds,35.71,35.96,31,3.06,2024-03-07 16:55:14
Ise-Ekiti,7.4632,5.4281,overcast clouds,30.53,33.22,57,2.72,2024-03-07 16:55:15
Isara,6.99281,3.68185,overcast clouds,30.92,33.74,56,2.95,2024-03-07 16:55:16
Isanlu-Itedoijowa,8.26667,5.83333,light rain,28.38,30.03,60,0.9,2024-03-07 16:55:17
Ipoti,7.87377,5.07692,overcast clouds,29.34,31.13,57,2.73,2024-03-07 16:55:17
Iperu,6.91002,3.66557,overcast clouds,30.7,33.76,58,3.13,2024-03-07 16:55:18
Inisa,7.85,4.33333,broken clouds,32.79,35.07,47,4.09,2024-03-07 16:55:19
Imo State,5.5,7.16667,overcast clouds,32.85,35.99,50,3.42,2024-03-07 16:55:20
Ilorin,8.5,4.55,overcast clouds,35.38,37.02,37,5.02,2024-03-07 16:55:21
Ilobu,7.83333,4.48333,overcast clouds,32.87,35.48,48,3.62,2024-03-07 16:55:23
Illushi,6.6667,6.63076,light rain,33.52,37.05,49,2.68,2024-03-07 16:55:23
Illela,13.72918,5.29752,scattered clouds,39.21,35.86,7,1.67,2024-03-07 16:55:24
Ilesa,7.61667,4.73333,overcast clouds,31.2,33.82,54,1.86,2024-03-07 16:55:25
Ilaro,6.88653,3.0205,overcast clouds,31.84,35.31,55,4.25,2024-03-07 16:55:26
Ilare,7.35067,5.11333,light rain,29.48,32.41,63,1.98,2024-03-07 16:55:27
Ila Orangun,8.01667,4.9,overcast clouds,30.84,32.95,53,3.45,2024-03-07 16:55:28
Ikot Ekpene,5.17938,7.71082,light rain,32.05,36.3,57,2.75,2024-03-07 16:55:28
Ikom,5.96669,8.70632,overcast clouds,30.68,34.65,62,0.1,2024-03-07 16:55:29
Ikirun,7.91667,4.66667,overcast clouds,31.96,34.53,51,3.17,2024-03-07 16:55:30
Ikire,7.35,4.18333,overcast clouds,32.34,35.79,53,3.02,2024-03-07 16:55:31
Ikere-Ekiti,7.49133,5.23225,overcast clouds,29.7,32.65,62,1.3,2024-03-07 16:55:32
Ikem,6.77903,7.71685,overcast clouds,33.99,36.21,43,4.73,2024-03-07 16:55:33
Ikeja,6.59422,3.33748,overcast clouds,30.4,34.52,64,4.78,2024-03-07 16:55:35
Ikang,4.78978,8.5316,broken clouds,30.59,35.2,65,4.19,2024-03-07 16:55:38
Ijero-Ekiti,7.8139,5.0742,light rain,29.75,32.18,59,2.49,2024-03-07 16:55:39
Ijebu-Ode,6.81609,3.91588,overcast clouds,30.06,33.57,63,2.81,2024-03-07 16:55:41
Ijebu-Jesa,7.68333,4.81667,overcast clouds,30.96,33.81,56,1.79,2024-03-07 16:55:42
Ijebu-Igbo,6.9798,4.00329,light rain,29.45,32.92,66,2.55,2024-03-07 16:55:47
Ijebu-Ife,6.77837,4.03386,overcast clouds,30.04,33.97,65,2.61,2024-03-07 16:55:48
Iho,5.56667,7.1,overcast clouds,32.74,35.77,50,3.29,2024-03-07 16:55:49
Ihiala,5.85377,6.86026,overcast clouds,33.6,36.04,45,2.55,2024-03-07 16:55:50
Igede-Ekiti,7.66676,5.13205,overcast clouds,28.65,30.59,61,2.04,2024-03-07 16:55:51
Igbo-Ukwu,6.01669,7.02654,broken clouds,32.4,33.68,44,2.38,2024-03-07 16:55:52
Igbor,7.4527,8.6098,overcast clouds,37.72,38.34,28,3.51,2024-03-07 16:55:52
Igbo-Ora,7.43333,3.28333,overcast clouds,34.36,35.79,39,4.33,2024-03-07 16:55:53
Igboho,8.83333,3.75,scattered clouds,36.05,35.54,27,2.71,2024-03-07 16:55:54
Igbeti,8.75,4.13333,broken clouds,37.47,36.87,24,1.64,2024-03-07 16:55:55
Igbara-Odo,7.50251,5.06258,overcast clouds,30.24,33.3,60,1.16,2024-03-07 16:55:56
Igarra,7.2827,6.0878,overcast clouds,33.07,35.33,46,3.1,2024-03-07 16:55:57
Igabi,10.78887,7.77493,broken clouds,32.53,31.56,31,1.03,2024-03-07 16:55:58
Ifon,6.92412,5.77603,light rain,29.36,32.74,66,2.48,2024-03-07 16:56:01
Ifo,6.81437,3.19575,overcast clouds,31.87,35.11,54,4.16,2024-03-07 16:56:02
Ifira,10.70113,7.29455,overcast clouds,32.99,32.45,33,2.34,2024-03-07 16:56:03
Ile-Ife,7.46667,4.56667,overcast clouds,31.38,34.64,56,2.16,2024-03-07 16:56:05
Ifaki,7.78942,5.24852,overcast clouds,28.84,30.77,60,2.85,2024-03-07 16:56:06
Idiroko,6.63333,2.73333,broken clouds,31.35,35.34,59,4.91,2024-03-07 16:56:07
Idanre,7.1127,5.1159,light rain,28.29,31.24,70,2.18,2024-03-07 16:56:07
Idah,7.10651,6.73415,overcast clouds,34.28,37.05,44,2.71,2024-03-07 16:56:08
Icheu,7.7067,6.7718,overcast clouds,37.07,39.13,34,3.58,2024-03-07 16:56:09
Ibi,8.18333,9.75,broken clouds,10.48,9.7,81,2.17,2024-03-07 16:56:10
Ibeto,10.48536,5.14502,broken clouds,38.39,35.69,12,1.98,2024-03-07 16:56:11
Ibadan,7.38778,3.89639,overcast clouds,32.57,35.18,49,4.04,2024-03-07 16:56:12
Hunkuyi,11.26676,7.65118,broken clouds,33.66,32.25,26,3.76,2024-03-07 16:56:14
Holma,9.90083,13.05667,broken clouds,35.04,32.69,16,0.81,2024-03-07 16:56:14
Hinna,10.30426,11.49905,scattered clouds,38.76,36.97,17,2.19,2024-03-07 16:56:19
Heipang,9.63333,8.88333,overcast clouds,28.77,28.14,37,2.75,2024-03-07 16:56:20
Hadejia,12.4498,10.0444,scattered clouds,36.87,34.02,10,1.2,2024-03-07 16:56:22
Gwoza,11.10359,13.71298,overcast clouds,36.72,33.88,10,4.01,2024-03-07 16:56:23
Gwio Kura,12.6753,11.0682,broken clouds,36.99,34.07,9,2.27,2024-03-07 16:56:24
Gwasero,9.48333,3.5,broken clouds,38.14,36.42,18,0.75,2024-03-07 16:56:24
Gwarzo,11.91521,7.9346,scattered clouds,37.66,35.5,16,2.82,2024-03-07 16:56:25
Gwaram,11.27639,9.88583,broken clouds,37.19,34.32,10,2.68,2024-03-07 16:56:26
Gwaram,10.23295,10.28572,broken clouds,37.19,34.32,10,2.68,2024-03-07 16:56:27
Gwandu,12.49382,4.64227,broken clouds,39.71,36.18,6,3,2024-03-07 16:56:28
Gwadabawa,13.35612,5.23664,broken clouds,39.11,35.88,8,1.17,2024-03-07 16:56:29
Gusau,12.16278,6.66135,scattered clouds,38.99,37.04,16,3.01,2024-03-07 16:56:30
Gummi,12.14358,5.10809,broken clouds,39.49,36.22,8,1.38,2024-03-07 16:56:30
Gumel,12.62791,9.39119,scattered clouds,36.88,34.03,10,1.77,2024-03-07 16:56:31
Gulma,12.64231,4.35545,broken clouds,39.61,36.1,6,3.57,2024-03-07 16:56:32
Gujba,11.5032,11.9367,broken clouds,36.89,33.98,9,3.61,2024-03-07 16:56:33
Goronyo,13.44232,5.67632,overcast clouds,39.11,35.88,8,2.5,2024-03-07 16:56:34
Gorgoram,12.6398,10.7039,few clouds,38.62,35.44,8,1.51,2024-03-07 16:57:40
Gora,11.91294,7.6653,scattered clouds,3.42,0.01,61,3.85,2024-03-07 16:57:40
Goniri,11.48333,12.31444,broken clouds,36.63,33.8,10,2.93,2024-03-07 16:57:41
Gombi,10.16138,12.7399,broken clouds,35.83,33.18,12,1.79,2024-03-07 16:57:42
Gombe,10.28969,11.16729,broken clouds,36.74,34.75,18,1.94,2024-03-07 16:57:43
Gidan Sarkin Gardi,12.07433,6.405,scattered clouds,38.78,36.41,14,3.99,2024-03-07 16:57:45
Gembu,6.7,11.26667,overcast clouds,26.22,26.22,43,3.46,2024-03-07 16:57:46
Geidam,12.897,11.9304,broken clouds,37.42,34.45,9,3.95,2024-03-07 16:57:46
Gbongan,7.46667,4.35,overcast clouds,32.16,35.7,54,2.5,2024-03-07 16:57:47
Gaya,11.86136,8.99714,haze,15.95,15.48,72,0,2024-03-07 16:57:48
Gassol,8.53333,10.46667,overcast clouds,37.97,38.74,28,2.79,2024-03-07 16:57:49
Gashua,12.871,11.0482,broken clouds,37.74,34.74,9,2.59,2024-03-07 16:57:49
Garko,10.17506,11.16458,broken clouds,36.65,34.65,18,1.47,2024-03-07 16:57:50
Ganye,8.43333,12.06667,overcast clouds,34.57,34.26,31,2.33,2024-03-07 16:57:51
Gandi,12.96358,5.74337,broken clouds,37.52,34.42,7,1.88,2024-03-07 16:57:52
Gamboru,12.37066,14.21731,broken clouds,35.55,33.54,19,1.05,2024-03-07 16:57:52
Gamawa,12.1343,10.5396,scattered clouds,36.89,33.98,9,1.76,2024-03-07 16:57:53
Gakem,6.76578,8.98813,overcast clouds,32.75,35,47,4.85,2024-03-07 16:57:56
Gagarawa,12.40741,9.5277,scattered clouds,36.05,33.32,11,0.3,2024-03-07 16:57:57
Gabarin,11.1093,10.4441,broken clouds,36.34,33.59,11,2.18,2024-03-07 16:57:58
Funtua,11.52325,7.30813,broken clouds,34.26,32.98,26,6.05,2024-03-07 16:58:02
Fili,8.43333,4.5,overcast clouds,-1.74,-4.66,96,2.14,2024-03-07 16:58:03
Fiditi,7.71361,3.91722,overcast clouds,33.83,35.65,42,4.42,2024-03-07 16:58:03
Ezza-Ohu,6.4373,8.0862,overcast clouds,35.74,38.3,39,5.72,2024-03-07 16:58:04
Eyamba Town,4.44253,7.16747,broken clouds,29.29,34.64,76,5.84,2024-03-07 16:58:05
Etinan,4.84262,7.85252,overcast clouds,30.91,35.67,64,3.37,2024-03-07 16:58:06
Ete,7.05,7.45,overcast clouds,32.05,33.98,48,4.31,2024-03-07 16:58:07
Esuk Oron,4.80293,8.25341,broken clouds,30.15,35.16,69,3.8,2024-03-07 16:58:07
Epe,6.58412,3.98336,overcast clouds,29.79,34.53,70,3.6,2024-03-07 16:58:08
Enugu-Ukwu,6.17851,7.01156,overcast clouds,34.03,36.29,43,2.3,2024-03-07 16:58:10
Enugu-Ezike,6.9825,7.457,overcast clouds,31.38,33.26,50,4.27,2024-03-07 16:58:12
Enugu,6.4402,7.4943,overcast clouds,33.21,35.59,46,4.06,2024-03-07 16:58:13
Emure-Ekiti,7.43614,5.45932,overcast clouds,30.5,33.16,57,3.01,2024-03-07 16:58:14
Emene,6.4762,7.5851,overcast clouds,34.09,36.69,44,4.31,2024-03-07 16:58:15
Emagiti,9.06667,6.03333,overcast clouds,38.72,39.01,25,1.06,2024-03-07 16:58:15
Elelem,5.26566,7.14768,overcast clouds,31.84,36.13,58,3.57,2024-03-07 16:58:17
Elele,5.1009,6.81411,light rain,30.54,35.08,65,2.67,2024-03-07 16:58:20
Ekpoma,6.74206,6.139,,,,,,2024-03-07 16:58:21
Eket,4.64122,7.92092,broken clouds,29.54,34.38,72,4.16,2024-03-07 16:58:26
Ejirin,6.61423,3.90019,overcast clouds,29.86,34.47,69,3.44,2024-03-07 16:58:31
Ejigbo,7.9,4.31667,broken clouds,33.14,35.46,46,4.27,2024-03-07 16:58:33
Eha Amufu,6.65915,7.75961,overcast clouds,34.77,36.79,40,4.69,2024-03-07 16:58:34
Egbe,8.21667,5.51667,light rain,31.89,33.27,46,1.94,2024-03-07 16:58:35
Efon-Alaaye,7.65,4.91667,overcast clouds,29.79,32.07,58,1.66,2024-03-07 16:58:36
Effium,6.62917,8.05925,broken clouds,36.16,38.12,36,4.5,2024-03-07 16:58:37
Ebute Ikorodu,6.60086,3.48818,overcast clouds,29.5,34.07,71,4.97,2024-03-07 16:58:38
Dutsin-Ma,12.45167,7.49805,scattered clouds,38.66,36.46,15,1.48,2024-03-07 16:58:39
Dutsen Wai,10.85009,8.199,overcast clouds,33.75,32.23,25,3.7,2024-03-07 16:58:39
Dutse,11.7594,9.33921,broken clouds,37.7,34.79,10,3.19,2024-03-07 16:58:40
Duku,11.2361,4.90727,broken clouds,38.82,35.45,6,1.1,2024-03-07 16:58:41
Dukku,10.82306,10.77167,broken clouds,36.61,33.85,11,1.95,2024-03-07 16:58:42
Doma,8.38333,8.35,overcast clouds,38.48,38.94,26,0.22,2024-03-07 16:58:43
Disina,11.48135,9.91903,broken clouds,37.35,34.46,10,2.77,2024-03-07 16:58:43
Dindima,10.22629,10.15132,scattered clouds,37.46,34.87,13,3.08,2024-03-07 16:58:44
Dillala,13.108,11.5703,broken clouds,37.26,34.38,10,3.06,2024-03-07 16:58:45
Dikwa,12.02396,13.91646,overcast clouds,38.31,35.17,8,3.07,2024-03-07 16:58:46
Dengi,9.36667,9.95,overcast clouds,37.5,36.67,23,3.9,2024-03-07 16:58:47
Dekina,7.69475,7.02218,light rain,32.69,35.14,48,3.58,2024-03-07 16:58:48
Deba,10.20864,11.38586,scattered clouds,38.1,36.18,17,2.45,2024-03-07 16:58:49
Daura,13.03594,8.31631,overcast clouds,36.33,33.48,9,2.81,2024-03-07 16:58:50
Daura,11.5538,11.4085,overcast clouds,36.33,33.48,9,2.81,2024-03-07 16:58:51
Darazo,10.99375,10.41179,broken clouds,36.28,33.54,11,2.26,2024-03-07 16:58:52
Dapchi,12.4904,11.4944,overcast clouds,37.49,34.52,9,2.83,2024-03-07 16:58:52
Dan Sadau,11.29621,6.4952,broken clouds,36.61,35.67,24,3.96,2024-03-07 16:58:53
Dankama,13.29782,7.79492,overcast clouds,38.23,35.81,14,0.27,2024-03-07 16:58:54
Dankalwa,11.7443,12.1867,broken clouds,37.07,34.14,9,1.76,2024-03-07 16:58:55
Danja,11.37643,7.56249,broken clouds,34.32,32.9,25,5.05,2024-03-07 16:58:56
Dan Gora,11.53485,8.15224,broken clouds,35.67,33.81,20,3.85,2024-03-07 16:58:56
Dange,12.85128,5.34705,overcast clouds,38.52,35.36,8,2.42,2024-03-07 16:58:58
Damboa,11.15604,12.75758,broken clouds,37.96,34.86,8,2.27,2024-03-07 16:58:58
Dambatta,12.43303,8.51541,scattered clouds,38.31,35.48,11,3.94,2024-03-07 16:58:59
Damaturu,11.747,11.9608,scattered clouds,37.33,34.37,9,1.62,2024-03-07 16:59:00
Damasak,13.09771,12.4952,scattered clouds,37.38,34.42,9,4.73,2024-03-07 16:59:01
Dakingari,11.64511,4.06046,broken clouds,40.21,36.6,6,2.33,2024-03-07 16:59:02
Dadiya,9.61667,11.43333,broken clouds,37.67,36.24,20,0.59,2024-03-07 16:59:02
Dabai,11.47652,5.20625,scattered clouds,37.64,34.52,7,2.42,2024-03-07 16:59:03
Cross River State,5.75,8.5,broken clouds,30.88,34.59,60,2.56,2024-03-07 16:59:04
Tsafe,11.95527,6.92232,scattered clouds,37.77,35.97,18,3.39,2024-03-07 16:59:05
Calabar,4.9517,8.322,light rain,31.06,36.3,65,2.56,2024-03-07 16:59:05
Burutu,5.35091,5.50758,overcast clouds,29.43,34.12,72,4.61,2024-03-07 16:59:06
Burumburum,11.39106,8.72341,broken clouds,36.1,33.68,15,1.35,2024-03-07 16:59:07
Bunza,12.08444,4.02111,overcast clouds,39.88,36.32,6,2.89,2024-03-07 16:59:08
Bununu,9.86806,9.66278,broken clouds,37.34,34.86,14,2.45,2024-03-07 16:59:09
Dass,10.0,9.51667,scattered clouds,37.21,34.61,13,2.46,2024-03-07 16:59:10
Bukuru,9.8,8.86667,overcast clouds,30.25,28.84,28,1.78,2024-03-07 16:59:19
Buguma,4.73407,6.86345,light rain,31.5,36.21,61,4.37,2024-03-07 16:59:25
Buga,8.49056,7.34139,scattered clouds,29.84,32.34,59,0.57,2024-03-07 16:59:26
Twon-Brass,4.31506,6.24176,broken clouds,29.16,34.52,77,6.27,2024-03-07 16:59:27
Bornu Yassu,12.2774,12.5552,broken clouds,37.29,34.34,9,3.95,2024-03-07 16:59:28
Borno State,11.5,13.0,scattered clouds,37.57,34.52,8,2.97,2024-03-07 16:59:29
Bori,4.67366,7.36201,overcast clouds,30.15,35.16,69,4.72,2024-03-07 16:59:30
Ugbokpo,7.6565,7.8664,light rain,33.65,35.33,42,3.39,2024-03-07 16:59:31
Bonny,4.4522,7.16808,broken clouds,29.37,34.63,75,5.81,2024-03-07 16:59:32
Bomadi,5.15931,5.92516,moderate rain,29.66,34.22,70,3.38,2024-03-07 16:59:32
Bolori,11.88259,13.08901,broken clouds,37.37,34.34,8,3.05,2024-03-07 16:59:33
Bokkos,9.3,9.0,overcast clouds,25.81,25.83,53,2.36,2024-03-07 16:59:34
Bokani,9.43333,5.2,overcast clouds,38.03,37.41,23,1.68,2024-03-07 16:59:35
Boju,7.37834,7.91119,light rain,34.88,36.15,37,3.04,2024-03-07 16:59:36
Boi,9.56833,9.49528,broken clouds,34.98,33.02,20,2.96,2024-03-07 16:59:37
Bode Saadu,8.93333,4.78333,overcast clouds,37.9,38.32,27,3.02,2024-03-07 16:59:38
Biu,10.61285,12.19458,overcast clouds,34.86,32.32,13,0.49,2024-03-07 16:59:39
Birniwa,12.7903,10.2348,broken clouds,36.95,34.09,10,1.72,2024-03-07 16:59:40
Birnin Kudu,11.44588,9.4984,broken clouds,37.49,34.78,12,2.53,2024-03-07 16:59:41
Birnin Kebbi,12.45389,4.1975,overcast clouds,39.45,35.97,6,3.54,2024-03-07 16:59:42
Sofo-Birnin-Gwari,11.01537,6.78036,overcast clouds,30.86,30.6,39,3.69,2024-03-07 16:59:43
Birim,10.062094,9.997027,scattered clouds,37.33,34.63,12,1.97,2024-03-07 16:59:44
Bin Yauri,10.7823,4.81135,scattered clouds,40.08,36.61,7,1.23,2024-03-07 16:59:46
Binji,13.22277,4.90955,scattered clouds,39.71,36.18,6,3.34,2024-03-07 16:59:48
Billiri,9.86472,11.22528,scattered clouds,36.43,34.7,20,1.07,2024-03-07 16:59:49
Bida,9.08333,6.01667,broken clouds,38.98,39.42,25,1.17,2024-03-07 16:59:50
Benue State,7.33333,8.75,overcast clouds,37.16,38.64,32,4.25,2024-03-07 16:59:50
Benisheikh,11.8072,12.4909,broken clouds,37.28,34.33,9,3.63,2024-03-07 16:59:51
Benin City,6.33504,5.62749,overcast clouds,31.96,35.56,55,3.05,2024-03-07 16:59:52
Bende,5.55718,7.63676,overcast clouds,32.97,36.23,50,2.51,2024-03-07 16:59:53
Bena,11.28444,5.93472,broken clouds,37.01,34.08,9,3.85,2024-03-07 16:59:54
Beli,7.85868,10.97187,overcast clouds,35.66,36.66,34,1.68,2024-03-07 16:59:54
Bebeji,11.66726,8.26217,broken clouds,36.96,34.86,17,2.71,2024-03-07 16:59:55
Bauchi State,10.5,10.0,scattered clouds,36.86,34.08,11,3.34,2024-03-07 16:59:56
Bauchi,10.31344,9.84327,scattered clouds,36.86,34.08,11,3.34,2024-03-07 16:59:57
Batsari,12.75147,7.24472,scattered clouds,37.78,35.8,17,2.11,2024-03-07 16:59:57
Baro,8.6,6.41667,overcast clouds,36.81,38.34,33,3.51,2024-03-07 16:59:58
Bara,10.37444,10.72884,broken clouds,37.61,35.6,17,1.9,2024-03-07 16:59:59
Bama,11.5221,13.68558,overcast clouds,37.38,34.49,10,3.84,2024-03-07 17:00:00
Bakori,11.55445,7.42425,broken clouds,35.22,33.86,24,6.17,2024-03-07 17:00:00
Baissa,7.23333,10.63333,overcast clouds,33.48,34.79,41,2.74,2024-03-07 17:00:01
Bagudo,11.40329,4.22958,broken clouds,40.31,36.68,6,2.28,2024-03-07 17:00:02
Bugana,7.99917,7.58361,overcast clouds,32.95,34.86,45,5.5,2024-03-07 17:00:03
Badeggi,9.05,6.15,broken clouds,39.04,39.52,25,1.62,2024-03-07 17:00:03
Badakoshi,10.54648,10.01186,scattered clouds,36.58,33.82,11,3.23,2024-03-07 17:00:04
Badagry,6.41667,2.88333,broken clouds,29.54,34.16,71,4.69,2024-03-07 17:00:05
Babura,12.77305,9.01583,few clouds,37.92,34.91,9,2.78,2024-03-07 17:00:06
Babana,10.42949,3.81495,broken clouds,39.88,36.87,10,0.73,2024-03-07 17:00:07
Azare,11.6765,10.1948,scattered clouds,37,34.07,9,2.88,2024-03-07 17:00:07
Awka,6.21009,7.07411,overcast clouds,34.49,37.16,43,2.51,2024-03-07 17:00:08
Awgu,6.0742,7.4786,overcast clouds,33.83,36.77,46,3.35,2024-03-07 17:00:09
Auna,10.18805,4.72318,scattered clouds,37.96,35.84,16,0.69,2024-03-07 17:00:10
Auchi,7.06667,6.26667,overcast clouds,33.77,36.08,44,2.72,2024-03-07 17:00:10
Asaba,6.20064,6.73384,overcast clouds,34.06,37.23,46,3.43,2024-03-07 17:00:11
Arochukwu,5.38979,7.91404,broken clouds,32.6,36.62,54,2.16,2024-03-07 17:00:12
Argungu,12.74334,4.52687,broken clouds,39.67,36.15,6,2.99,2024-03-07 17:00:13
Aramoko-Ekiti,7.70927,5.04474,light rain,29.6,32.27,61,1.96,2024-03-07 17:00:14
Apomu,7.33333,4.18333,overcast clouds,32.08,35.27,53,3.03,2024-03-07 17:00:14
Ankpa,7.37058,7.6253,overcast clouds,33.7,34.92,40,3.34,2024-03-07 17:00:15
Anka,12.11381,5.92427,broken clouds,38.67,35.4,7,5.42,2024-03-07 17:00:16
Anchau,10.95967,8.39155,overcast clouds,33.76,32,23,2.97,2024-03-07 17:00:17
Anambra State,6.33333,7.0,overcast clouds,34.4,36.98,43,1.91,2024-03-07 17:00:17
Amper,9.35,9.7,broken clouds,36.83,35.76,23,3.83,2024-03-07 17:00:18
Amassoma,4.96917,6.10972,heavy intensity rain,28.35,32.64,78,2.19,2024-03-07 17:00:20
Amaigbo,5.78917,7.83829,overcast clouds,33.75,36.91,47,3.16,2024-03-07 17:00:21
Amagunze,6.3267,7.6539,overcast clouds,34.95,37.74,42,4.15,2024-03-07 17:00:21
Aliade,7.2964,8.487,overcast clouds,37.89,38.61,28,4.09,2024-03-07 17:00:22
Alapa,8.61667,4.38333,overcast clouds,36.59,36.56,28,3.28,2024-03-07 17:00:23
Akwanga,8.91667,8.38333,light rain,30.38,31.29,48,3.09,2024-03-07 17:00:24
Akwa Ibom State,5.0,7.83333,light rain,31.86,36.46,59,2.61,2024-03-07 17:00:24
Akure,7.25256,5.19312,light rain,28.42,31.2,68,2.44,2024-03-07 17:00:25
Aku,6.7081,7.3167,overcast clouds,31.92,33.98,49,3.38,2024-03-07 17:00:26
Akko,10.28899,10.9732,few clouds,15.58,14.94,67,2.57,2024-03-07 17:00:27
Ake-Eze,5.91677,7.67615,broken clouds,34.39,37.58,45,3.47,2024-03-07 17:00:28
Akankpa,5.1264,8.1898,light rain,31.42,36.31,62,2.01,2024-03-07 17:00:28
Ajibo,7.46667,4.28333,overcast clouds,32.31,35.73,53,2.62,2024-03-07 17:00:29
Ajasse Ipo,8.23333,4.81667,overcast clouds,31.89,34.16,50,4.16,2024-03-07 17:00:30
Ajaokuta,7.56229,6.65497,light rain,35.2,37.9,41,4.95,2024-03-07 17:00:31
Ahoada,5.07395,6.65353,light rain,30.24,34.88,67,2.75,2024-03-07 17:00:32
Agulu,6.11,7.0724,overcast clouds,33.98,36.48,44,2.44,2024-03-07 17:00:32
Ago-Are,8.5,3.41667,broken clouds,36.53,36.73,29,2.8,2024-03-07 17:00:33
Agenebode,7.106,6.6966,light rain,34.28,37.05,44,2.33,2024-03-07 17:00:34
Agbor,6.25183,6.19337,light rain,30.9,34.16,58,2.57,2024-03-07 17:00:35
Agbabu,6.58862,4.8343,overcast clouds,30.81,35.19,63,2.76,2024-03-07 17:00:37
Agaie,9.01667,6.31667,overcast clouds,39,39.78,26,2.15,2024-03-07 17:00:38
Afikpo,5.89312,7.93735,overcast clouds,33.88,36.87,46,3.93,2024-03-07 17:00:38
Adoru,6.97661,7.16268,overcast clouds,33.24,36.48,49,3.76,2024-03-07 17:00:39
Ado-Odo,6.6,2.93333,broken clouds,30.74,34.78,62,4.51,2024-03-07 17:00:40
Ado-Ekiti,7.621,5.2215,overcast clouds,29.39,31.88,61,2.01,2024-03-07 17:00:41
Adani,6.73971,7.01117,overcast clouds,33.94,36.99,46,2.52,2024-03-07 17:00:42
Federal Capital Territory,8.83333,7.16667,broken clouds,35.15,34.68,29,2.72,2024-03-07 17:00:42
Abuja,9.05735,7.48976,broken clouds,35.42,35.29,30,3.74,2024-03-07 17:00:43
Abraka,5.79023,6.10473,overcast clouds,32.33,36.05,54,3.38,2024-03-07 17:00:44
Abocho,7.5677,6.9863,light rain,32.59,33.78,43,3.09,2024-03-07 17:00:45
Abeokuta,7.15,3.35,overcast clouds,32.67,35.63,50,4.04,2024-03-07 17:00:46
Abakaliki,6.31625,8.11691,overcast clouds,35.15,38.13,42,6.45,2024-03-07 17:00:46
Abak,4.9797,7.79171,light rain,31.73,36.45,60,2.74,2024-03-07 17:00:47
Aba,5.10658,7.36667,light rain,31.17,35.74,62,3.93,2024-03-07 17:00:48
Abia State,5.41667,7.5,overcast clouds,32.59,36.03,52,3.24,2024-03-07 17:00:49
Delta State,5.5,6.0,light rain,30.79,35.4,64,3.09,2024-03-07 17:00:49
Adamawa State,9.33333,12.5,overcast clouds,38.04,36.94,21,2.73,2024-03-07 17:00:50
Edo,6.5,6.0,light rain,31.97,35.31,54,1.76,2024-03-07 17:00:51
Enugu State,6.5,7.5,broken clouds,33.1,35.65,47,4.25,2024-03-07 17:00:52
Jigawa State,12.0,9.75,scattered clouds,36.29,33.55,11,1.36,2024-03-07 17:00:52
Shogunle,6.57806,3.33444,overcast clouds,30.31,34.33,64,4.86,2024-03-07 17:00:53
Imogwu,4.98174,6.94338,light rain,30.65,35.33,65,3.12,2024-03-07 17:00:54
Degema Hulk,4.76254,6.752,overcast clouds,31.54,36.02,60,4.22,2024-03-07 17:00:55
Orogbum,4.79071,7.01174,light rain,31.34,36.12,62,4.13,2024-03-07 17:00:56
Takurza,12.06425,8.53179,few clouds,38.51,35.81,12,2.52,2024-03-07 17:00:56
Bayelsa State,4.75,6.08333,moderate rain,30.48,34.7,64,4.19,2024-03-07 17:00:57
Ebonyi State,6.25,8.08333,overcast clouds,34.82,37.8,43,6.51,2024-03-07 17:00:58
Ekiti State,7.66667,5.25,overcast clouds,29.72,32.49,61,2.38,2024-03-07 17:00:59
Gombe State,10.25,11.16667,broken clouds,36.63,34.63,18,1.85,2024-03-07 17:00:59
Nasarawa State,8.5,8.25,overcast clouds,38.97,39.74,26,2.45,2024-03-07 17:01:00
Zamfara State,12.16667,6.25,broken clouds,38.22,35.18,9,5.94,2024-03-07 17:01:01
Kebbi State,11.5,4.0,broken clouds,40.45,36.79,6,2.13,2024-03-07 17:01:02
Kogi State,7.75,6.75,overcast clouds,37.79,39.41,31,3.67,2024-03-07 17:01:03
Osun State,7.5,4.5,overcast clouds,31.64,35.43,57,2.4,2024-03-07 17:01:04
Taraba State,8.0,10.5,overcast clouds,36.65,37.76,32,4.02,2024-03-07 17:01:04
Yobe State,12.0,11.5,overcast clouds,36.76,33.86,9,2.7,2024-03-07 17:01:05
Alodifi,7.2452,5.2956,light rain,28.39,31.44,70,2.55,2024-03-07 17:01:06
Ishie Town,4.9936,8.3372,light rain,31.25,36.47,64,2.3,2024-03-07 17:01:07
Hanwa,11.11861,7.70193,broken clouds,33.24,32.02,28,2.54,2024-03-07 17:01:08
Sire,12.9299,5.20428,broken clouds,39.22,35.98,8,1.97,2024-03-07 17:01:09
Afaha Oku,5.04827,7.9217,overcast clouds,32,36.78,59,2.41,2024-03-07 17:01:09

City,Latitude,Longitude,Weather Description,Temperature (째C),Perceived Temperature (째C),Humidity (%),Wind Speed (m/s),Timestamp
Zuru,11.42406,5.22879,,,,,,2024-03-08 14:43:27
Zungeru,9.81278,6.15583,,,,,,2024-03-08 14:43:37
Zaria,11.11128,7.7227,,,,,,2024-03-08 14:43:47
Zango,13.05151,8.48765,,,,,,2024-03-08 14:43:50
Zalanga,10.61432,10.17647,broken clouds,39.71,37.67,15,2.66,2024-03-08 14:44:14
Zaki Biam,7.51667,9.61667,scattered clouds,36.34,38.13,35,5.64,2024-03-08 14:44:28
Zadawa,11.4496,10.3672,scattered clouds,40.8,37.99,11,1.14,2024-03-08 14:44:30
Yuli,9.69889,10.27444,broken clouds,40.3,40.13,21,4.78,2024-03-08 14:44:33
Yola,9.2,12.48333,few clouds,39.9,44.32,33,4.12,2024-03-08 14:44:34
Yenagoa,4.92472,6.26417,light rain,32.22,37.28,59,1.89,2024-03-08 14:44:35
Yelwa,8.83333,9.63333,broken clouds,39.36,41.12,28,4.06,2024-03-08 14:44:37
Yashikira,9.76667,3.4,scattered clouds,39.98,37.76,14,2.37,2024-03-08 14:44:38
Yandev,7.36667,9.05,broken clouds,34.6,36.77,41,5.68,2024-03-08 14:44:39
Yanda Bayo,11.5071,10.7459,few clouds,40.76,38.17,12,0.97,2024-03-08 14:44:41
Yamrat,10.11161,9.82604,,,,,,2024-03-08 14:45:13
Yajiwa,11.38385,12.7236,scattered clouds,41.32,39.32,14,2.35,2024-03-08 14:45:56
Wuyo,10.38522,11.69678,few clouds,40.14,39.27,19,2.63,2024-03-08 14:47:02
Wusasa,11.07543,7.67925,overcast clouds,38.4,36.16,15,2.65,2024-03-08 14:47:09
Wurno,13.28777,5.42326,broken clouds,41.21,37.27,5,4.15,2024-03-08 14:47:11
Wukari,7.85,9.78333,scattered clouds,37.54,39.65,33,5,2024-03-08 14:47:12
Wudil,11.81067,8.84505,overcast clouds,40.38,37.98,13,1.92,2024-03-08 14:47:15
Wawa,9.90222,4.41917,overcast clouds,38.57,37.66,21,2.7,2024-03-08 14:47:19
Wauro Jabbe,9.26667,12.41667,few clouds,40.06,44.66,33,4.12,2024-03-08 14:47:20
Wasagu,11.3764,5.79536,overcast clouds,39.77,36.23,6,3.03,2024-03-08 14:47:20
Warri,5.51667,5.75,light rain,32.22,36.39,56,3,2024-03-08 14:47:22
Wamba,8.93333,8.6,moderate rain,32.99,35.18,46,2.14,2024-03-08 14:47:23
Walmayo,7.7315,8.5441,broken clouds,36.39,39.93,40,4.09,2024-03-08 14:47:24
Wagini,12.68781,7.19579,overcast clouds,39.74,36.32,7,3.96,2024-03-08 14:47:25
Vom,9.73333,8.78333,light rain,26.26,26.26,43,4.61,2024-03-08 14:47:25
Uyo,5.03333,7.92657,overcast clouds,28.04,32.36,81,0.87,2024-03-08 14:47:27
Uruobo-Okija,5.90016,6.84312,light rain,33.09,37.38,53,2.4,2024-03-08 14:47:30
Uromi,6.7,6.33333,light rain,31.92,34.46,51,2.35,2024-03-08 14:47:35
Umunede,6.26374,6.31161,moderate rain,31.99,35.62,55,2.23,2024-03-08 14:48:15
Umuahia,5.52627,7.48959,,,,,,2024-03-08 14:52:07
Ukata,10.83122,5.82494,,,,,,2024-03-08 14:56:16
Ughelli,5.48986,6.00743,,,,,,2024-03-08 14:59:00
Ugep,5.8086,8.0812,overcast clouds,28.48,31.94,72,2.16,2024-03-08 14:59:06
Uga Soja,7.7124,8.6137,broken clouds,36.22,39.59,40,4.24,2024-03-08 14:59:17
Uga,5.93576,7.0793,light rain,30.49,33.79,60,2.73,2024-03-08 14:59:23
Udi,6.3144,7.4258,overcast clouds,29.36,31.49,59,2.23,2024-03-08 14:59:25
Ubiaja,6.65504,6.38687,light rain,32.48,35.53,51,2.22,2024-03-08 14:59:26
Uba,10.45306,13.22139,broken clouds,27.2,30.19,80,1.16,2024-03-08 14:59:27
Tungan Ali,9.00556,7.22194,scattered clouds,35.25,40.87,49,3.6,2024-03-08 14:59:29
Toungo,8.11667,12.05,broken clouds,39.14,38.18,20,0.93,2024-03-08 14:59:31
Tokombere,11.22713,13.48581,overcast clouds,42.39,38.4,6,3.92,2024-03-08 14:59:41
Tegina,10.0706,6.1906,scattered clouds,40.96,39.77,17,2.03,2024-03-08 14:59:44
Tambuwal,12.40386,4.64692,broken clouds,40.91,37.03,5,3.74,2024-03-08 14:59:46
Talata Mafara,12.57317,6.05971,scattered clouds,41.17,37.24,5,4.71,2024-03-08 14:59:48
Takum,7.26667,9.98333,overcast clouds,36.49,38.09,34,4.01,2024-03-08 14:59:51
Takai,11.58333,9.11667,overcast clouds,40.5,38.12,13,1.72,2024-03-08 15:00:17
Suya,9.46667,3.18333,few clouds,41.16,39.42,15,0.78,2024-03-08 15:00:57
Suleja,9.17583,7.18083,,,,,,2024-03-08 15:02:13
Sokoto State,13.08333,5.25,overcast clouds,41.36,37.39,5,4.4,2024-03-08 15:02:58
Sokoto,13.06092,5.23902,overcast clouds,41.09,37.17,5,4.4,2024-03-08 15:03:42
Soba,10.98134,8.05749,,,,,,2024-03-08 15:08:49
Siluko,6.53858,5.1609,,,,,,2024-03-08 15:09:03
Shinkafi,13.07534,6.51046,,,,,,2024-03-08 15:11:49
Shani,10.21617,12.06198,,,,,,2024-03-08 15:13:39
Shanga,11.21062,4.57878,,,,,,2024-03-08 15:13:49
Saki,8.66667,3.38333,,,,,,2024-03-08 15:13:59
Shagamu,6.84323,3.64776,,,,,,2024-03-08 15:14:09
Shaffa,10.50673,12.33315,broken clouds,38.4,36.96,19,2.71,2024-03-08 15:15:30
Sauri,11.72655,6.78374,,,,,,2024-03-08 15:17:44
Sapele,5.89405,5.67666,moderate rain,31.94,36.93,60,2.64,2024-03-08 15:18:11
Samamiya,11.34873,9.63989,scattered clouds,41.15,38.6,12,1.26,2024-03-08 15:18:16
Sade,11.3595,10.6732,few clouds,40.95,38.38,12,1.34,2024-03-08 15:18:18
Runka,12.44788,7.30918,overcast clouds,39.52,36.13,7,3.69,2024-03-08 15:18:43
Ruma,12.8626,7.23469,,,,,,2024-03-08 15:21:21
Rivers State,4.74974,6.82766,,,,,,2024-03-08 15:21:30
Riti,7.91667,9.61667,,,,,,2024-03-08 15:21:34
Ringim,12.15482,9.16192,overcast clouds,40.86,38.28,12,1.86,2024-03-08 15:22:27
Rijau,11.10298,5.25068,broken clouds,39.87,36.43,7,2.88,2024-03-08 15:22:35
Rano,11.54912,8.57464,broken clouds,39.98,37.76,14,2.5,2024-03-08 15:22:36
Saminaka,10.41403,8.68279,broken clouds,36.79,35.14,20,1.38,2024-03-08 15:22:42
Rabah,13.12133,5.50741,overcast clouds,41.2,37.26,5,4.11,2024-03-08 15:22:43
Potiskum,11.7091,11.0694,few clouds,40.91,38.33,12,1.79,2024-03-08 15:22:44
Port Harcourt,4.77742,7.0134,light rain,30.54,34.35,62,2.93,2024-03-08 15:23:15
Plateau State,9.16667,9.75,,,,,,2024-03-08 15:23:30
Pindiga,9.98333,10.93333,clear sky,38.23,37.44,22,3.85,2024-03-08 15:23:32
Patigi,8.73333,5.75,broken clouds,39.89,39.85,22,0.6,2024-03-08 15:23:33
Patani,5.22724,6.19238,light rain,33.96,38.99,52,1.6,2024-03-08 15:23:34
Panyam,9.41667,9.21667,light rain,24.96,25.08,60,2.95,2024-03-08 15:23:35
Pankshin,9.33333,9.45,light rain,27.36,27.5,46,3.09,2024-03-08 15:23:36
Ozubulu,5.95666,6.84904,light rain,33.08,37.05,52,2.39,2024-03-08 15:23:39
Oyo State,8.0,4.0,few clouds,38.19,38.48,26,1.79,2024-03-08 15:23:41
Oyo,7.85,3.93333,few clouds,38.34,39.03,27,1.4,2024-03-08 15:23:42
Oyan,8.05,4.76667,broken clouds,35.7,35.7,30,2.41,2024-03-08 15:23:43
Owode,6.94864,3.50511,overcast clouds,34.19,37.49,46,2.64,2024-03-08 15:23:44
Owo,7.1962,5.58681,overcast clouds,31.35,34.33,55,3.51,2024-03-08 15:23:45
Owerri,5.48333,7.03041,light rain,30.36,34.2,63,0.75,2024-03-08 15:23:47
Otukpa,7.08921,7.64989,light rain,30.71,33.13,55,2.79,2024-03-08 15:23:48
Otta,6.66667,3.73333,overcast clouds,0.52,0.52,87,0.1,2024-03-08 15:23:49
Osogbo,7.76667,4.56667,overcast clouds,36.17,36.69,31,2.03,2024-03-08 15:23:51
Oron,4.82561,8.23434,overcast clouds,28.44,32.87,78,0.17,2024-03-08 15:23:53
Orodo,5.61667,7.03333,light rain,29.82,33.29,64,1.28,2024-03-08 15:23:55
Orlu,5.79464,7.03495,light rain,29.89,33.22,63,2.43,2024-03-08 15:23:56
Orita Eruwa,7.55,3.43333,clear sky,38.89,40.3,28,1.72,2024-03-08 15:23:57
Orerokpe,5.63506,5.88956,moderate rain,32.07,36.35,57,2.26,2024-03-08 15:23:58
Ore,6.74569,4.87748,overcast clouds,33.41,38.42,54,3.47,2024-03-08 15:23:59
Opi,6.7814,7.4365,,,,,,2024-03-08 15:24:01
Onitsha,6.14543,6.78845,moderate rain,33.52,38,52,2.19,2024-03-08 15:24:07
Ondo State,7.16667,5.08333,,,,,,2024-03-08 15:26:45
Ondo,7.1,4.83333,,,,,,2024-03-08 15:28:58
Omuo-Ekiti,7.75833,5.72227,,,,,,2024-03-08 15:30:14
Omu-Aran,8.13333,5.1,overcast clouds,35.02,34.7,30,1.2,2024-03-08 15:30:48
Omoku,5.3435,6.65321,,,,,,2024-03-08 15:33:15
Olupona,7.6,4.18333,,,,,,2024-03-08 15:36:21
Okuta,9.21667,3.18333,broken clouds,39.51,38.15,18,0.75,2024-03-08 15:36:28
Okrika,4.74159,7.08488,overcast clouds,30.94,34.72,60,2.48,2024-03-08 15:36:29
Oko,6.2995,5.59383,light rain,29.16,33.68,73,2.46,2024-03-08 15:37:03
Okigwe,5.83523,7.35989,,,,,,2024-03-08 15:37:08
Oke Mesi,7.81667,4.91667,,,,,,2024-03-08 15:37:14
Okeho,8.03333,3.35,scattered clouds,37.04,36.49,25,0.62,2024-03-08 15:37:32
Ohunene,7.46614,6.66587,overcast clouds,34.45,38.35,47,3.44,2024-03-08 15:37:38
Ohafia-Ifigh,5.61455,7.81191,overcast clouds,28.56,32.12,72,1.19,2024-03-08 15:37:44
Ogwashi-Uku,6.17818,6.52429,light rain,31.33,34.78,57,1.88,2024-03-08 15:37:46
Oguta,5.7089,6.81026,overcast clouds,31.84,36.13,58,2.17,2024-03-08 15:37:48
Ogurugu,6.78558,6.95053,light rain,33.33,37.58,52,2.17,2024-03-08 15:37:50
Ogun State,7.0,3.58333,broken clouds,35.29,38.74,43,4.05,2024-03-08 15:37:51
Ogoja,6.65471,8.79764,broken clouds,32.68,35.93,51,4.57,2024-03-08 15:37:53
Ogbomoso,8.13333,4.26667,broken clouds,37.24,37.03,26,1.44,2024-03-08 15:37:54
Ogaminana,7.59464,6.22476,overcast clouds,33.54,36.79,48,2.69,2024-03-08 15:37:55
Offa,8.15,4.71667,broken clouds,36.39,36.03,27,2.25,2024-03-08 15:37:56
Ode,7.7899,5.7117,moderate rain,26.6,26.6,70,1.63,2024-03-08 15:37:57
Ochobo,7.183,7.9769,broken clouds,34.97,38.43,44,3.77,2024-03-08 15:37:58
Obudu,6.66737,9.17157,scattered clouds,32.06,34.47,50,3.86,2024-03-08 15:37:59
Obubra,6.07525,8.32904,overcast clouds,29.18,32.74,68,2.04,2024-03-08 15:38:00
Obonoma,4.70844,6.79307,overcast clouds,30.8,34.67,61,2.71,2024-03-08 15:38:02
Obolo-Eke (1),6.88333,7.63333,overcast clouds,31.71,34.79,54,2.93,2024-03-08 15:38:03
Obiaruku,5.84671,6.15257,light rain,31.87,36.48,59,2.15,2024-03-08 15:38:04
Numan,9.46667,12.03333,broken clouds,42.47,41.44,16,2.48,2024-03-08 15:38:05
Nsukka,6.8561,7.3927,overcast clouds,30.17,32.36,56,2.79,2024-03-08 15:38:06
Nnewi,6.01986,6.91478,light rain,31.12,34.85,59,2.3,2024-03-08 15:38:06
Nkwerre,5.75555,7.10627,overcast clouds,28.73,31.81,68,2.13,2024-03-08 15:38:08
Nkpor,6.15164,6.84458,light rain,31.98,35.33,54,1.93,2024-03-08 15:38:09
Niger State,10.0,6.0,overcast clouds,41.77,40.18,15,1.86,2024-03-08 15:38:09
Federal Republic of Nigeria,10.0,8.0,scattered clouds,35.81,34.27,22,1.51,2024-03-08 15:38:11
Nguru,12.8791,10.4526,scattered clouds,41.6,38.83,11,3.72,2024-03-08 15:38:11
Ngurore,9.28333,12.23333,broken clouds,42.57,40.84,14,2.01,2024-03-08 15:38:12
Ngala,12.33772,14.18052,overcast clouds,40.24,37.05,9,1.56,2024-03-08 15:38:13
New Shagunnu,10.33957,4.4688,overcast clouds,35.98,35.89,29,2.72,2024-03-08 15:38:14
Nasarawa,8.52944,7.72417,light rain,31.75,34.87,54,3.61,2024-03-08 15:38:15
Nafada,11.0956,11.3327,scattered clouds,41.15,39.4,15,4.43,2024-03-08 15:38:15
Mutum Biyu,8.63333,10.76667,scattered clouds,40.16,40.98,24,3.33,2024-03-08 15:38:16
Musawa,12.12717,7.6698,overcast clouds,38.81,35.61,8,4.88,2024-03-08 15:38:17
Mubi,10.26761,13.26436,clear sky,39.66,36.25,7,4.19,2024-03-08 15:38:18
Moriki,12.87405,6.48754,scattered clouds,40.85,36.99,5,4.59,2024-03-08 15:38:18
Monguno,12.67863,13.60792,few clouds,39.03,36.51,13,3.64,2024-03-08 15:38:19
Mokwa,9.28333,5.05,scattered clouds,41.91,41.05,17,1.94,2024-03-08 15:38:20
Modakeke,7.38333,4.26667,light rain,29.27,32.19,64,3.33,2024-03-08 15:38:21
Misau,11.3163,10.4703,broken clouds,40.53,37.92,12,1.27,2024-03-08 15:38:22
Miringa,10.73115,12.14626,broken clouds,37.94,36.37,19,2.17,2024-03-08 15:38:23
Minna,9.61389,6.55694,scattered clouds,40.19,39.65,20,1.47,2024-03-08 15:38:24
Imeko,7.45,2.85,scattered clouds,37.44,37.89,28,1.32,2024-03-08 15:38:25
Mayo-Belwa,9.05,12.05,scattered clouds,42.05,40.2,14,2.16,2024-03-08 15:38:26
Machina,13.13639,10.04924,scattered clouds,40.93,38.13,11,3.78,2024-03-08 15:38:27
Mashi,12.97844,7.95293,broken clouds,39.92,36.61,8,3.84,2024-03-08 15:38:30
Maru,12.33417,6.40569,overcast clouds,40.39,36.74,6,5,2024-03-08 15:38:31
Marte,12.36113,13.8246,scattered clouds,40.64,37.43,9,3.36,2024-03-08 15:38:32
Mando,10.71667,6.56667,scattered clouds,39.94,37.5,13,2.34,2024-03-08 15:38:33
Malumfashi,11.78529,7.62175,overcast clouds,38.5,35.34,8,5.21,2024-03-08 15:38:34
Mallammaduri,12.565,9.95729,scattered clouds,41.14,38.34,11,2.18,2024-03-08 15:38:34
Makurdi,7.7411,8.5121,scattered clouds,36.66,40.12,39,4.54,2024-03-08 15:38:35
Maiyama,12.08411,4.36766,overcast clouds,41.02,37.12,5,3.49,2024-03-08 15:38:36
Maitama,9.10306,7.49444,light rain,31.89,33.06,45,0.26,2024-03-08 15:38:37
Maiduguri,11.84644,13.16027,clear sky,41.61,38.84,11,2.47,2024-03-08 15:38:37
Mahuta,11.55254,4.98436,light rain,26.18,26.18,86,0.83,2024-03-08 15:38:38
Magumeri,12.1131,12.8274,clear sky,41.36,38.58,11,1.6,2024-03-08 15:38:39
Madara,11.7798,10.4479,broken clouds,40.97,37.95,10,1.22,2024-03-08 15:38:40
Madala,9.10444,7.21333,overcast clouds,37.04,36.99,27,0.72,2024-03-08 15:38:41
Madagali,10.89018,13.63121,few clouds,39.94,36.37,6,4.03,2024-03-08 15:38:42
Lokoja,7.80236,6.743,broken clouds,35.93,40.09,43,4.79,2024-03-08 15:38:42
Lere,10.38697,8.57262,broken clouds,34.86,33.57,25,2.39,2024-03-08 15:38:44
Lere,9.70889,9.33833,broken clouds,34.86,33.57,25,2.39,2024-03-08 15:38:44
Lau,9.21667,11.28333,clear sky,42.98,42.54,17,1.11,2024-03-08 15:38:45
Lapai,9.05,6.56667,broken clouds,40.16,40.26,22,2.62,2024-03-08 15:38:46
Langtang,9.13333,9.78333,scattered clouds,38.45,39.21,27,4.4,2024-03-08 15:38:47
Lame,10.44154,9.23955,overcast clouds,36.43,34.54,19,3.01,2024-03-08 15:38:47
Lalupon,7.46667,4.06667,light rain,33.1,35.38,46,2.88,2024-03-08 15:38:48
Lagos State,6.58333,3.75,broken clouds,32.32,37.21,58,4.56,2024-03-08 15:38:49
Lagos,6.45306,3.39583,light rain,32.06,36.33,57,3.83,2024-03-08 15:38:50
Lafiagi,8.86667,5.41667,scattered clouds,41.69,41.47,19,0.85,2024-03-08 15:38:51
Lafia,8.48333,8.51667,broken clouds,36.91,39.88,37,5.42,2024-03-08 15:38:52
Kwolla,8.93333,9.28333,moderate rain,28.5,30.21,60,5.84,2024-03-08 15:38:52
Kwatarkwashi,12.14082,6.82196,overcast clouds,39.47,36.09,7,4.59,2024-03-08 15:38:53
Kwara State,8.5,5.0,overcast clouds,38.81,37.99,21,2.26,2024-03-08 15:38:54
Kwali,8.86722,7.005,light rain,37.22,38.74,32,3.06,2024-03-08 15:38:54
Kwale,5.70632,6.43741,overcast clouds,33.36,37.65,52,1.99,2024-03-08 15:38:55
Kuyi,9.66667,6.45,few clouds,40.81,40.21,19,1.25,2024-03-08 15:38:56
Kuta,9.86667,6.71667,light rain,25.56,26.63,94,4.63,2024-03-08 15:38:57
Kusheriki,10.53283,6.44222,scattered clouds,39.5,37.42,15,2.3,2024-03-08 15:38:59
Kura,11.76969,8.43033,broken clouds,40.46,38.07,13,1.79,2024-03-08 15:39:00
Kumo,10.04469,11.21217,scattered clouds,38.66,37.78,21,2.76,2024-03-08 15:39:01
Kumagunnam,13.15514,10.63423,few clouds,41.52,38.5,10,2.59,2024-03-08 15:39:03
Kukawa,12.92342,13.56058,scattered clouds,39.9,36.89,10,4.91,2024-03-08 15:39:04
Kujama,10.45418,7.63678,broken clouds,36.81,34.99,19,2.17,2024-03-08 15:39:05
Koton-Karfe,8.1,6.8,overcast clouds,34.83,38.14,44,3.55,2024-03-08 15:39:07
Kontagora,10.39989,5.46949,overcast clouds,39.75,37.5,14,2.43,2024-03-08 15:39:07
Konkwesso,10.84686,4.09835,scattered clouds,41.39,37.57,6,3.19,2024-03-08 15:39:09
Konduga,11.65583,13.42133,few clouds,41.92,38.21,7,2.94,2024-03-08 15:39:09
Kisi,9.08333,3.85,,,,,,2024-03-08 15:39:11
Kibiya,11.52629,8.66227,overcast clouds,40.22,37.81,13,2.12,2024-03-08 15:39:11
Ketu Adieowe,6.6,3.06667,broken clouds,32.83,37.12,54,5.28,2024-03-08 15:39:12
Kende,11.51966,4.2603,broken clouds,41.34,37.37,5,3.4,2024-03-08 15:39:13
Kafin Hausa,12.23753,9.90798,scattered clouds,41.15,38.35,11,2.22,2024-03-08 15:39:14
Keffi,8.84861,7.87361,light rain,34.28,36.19,41,3.68,2024-03-08 15:39:15
Kazaure,12.65131,8.41615,broken clouds,40.65,37.44,9,4.1,2024-03-08 15:39:15
Kaura Namoda,12.58979,6.57791,broken clouds,40.47,36.81,6,4.94,2024-03-08 15:39:16
Katsina State,12.25,7.5,overcast clouds,38.8,35.6,8,2.78,2024-03-08 15:39:17
Katsina-Ala,7.16667,9.28333,scattered clouds,34.22,36.64,43,6.12,2024-03-08 15:39:18
Katsina,12.98943,7.60063,overcast clouds,39.52,36.25,8,3.66,2024-03-08 15:39:19
Katagum,12.2867,10.3527,few clouds,41.49,38.47,10,1.38,2024-03-08 15:39:20
Kari,11.2471,10.561,broken clouds,40.67,38.07,12,1.28,2024-03-08 15:39:22
Kano State,11.5,8.5,overcast clouds,40.01,37.79,14,2.56,2024-03-08 15:39:23
Kano,12.00012,8.51672,broken clouds,40.41,38.02,13,0.1,2024-03-08 15:39:25
Kankara,11.93016,7.41267,overcast clouds,38.49,35.33,8,3.95,2024-03-08 15:39:26
Kamba,11.84864,3.65761,overcast clouds,41.4,37.42,5,2.44,2024-03-08 15:39:27
Kaltungo,9.81417,11.30889,scattered clouds,38.64,37.5,20,2.19,2024-03-08 15:39:28
Kajuru,10.31921,7.68924,broken clouds,36.09,34.45,21,1.9,2024-03-08 15:39:29
Kajul,10.03176,7.9981,broken clouds,35.68,34.11,22,1.56,2024-03-08 15:39:30
Kangiwa,12.55208,3.81867,few clouds,41.31,37.35,5,4.17,2024-03-08 15:39:30
Kaiama,9.6225,3.94806,broken clouds,40.65,38.53,14,2.04,2024-03-08 15:39:32
Kagoro,9.6,8.38333,light rain,28.07,28.53,50,1.56,2024-03-08 15:39:34
Kafarati,10.38304,11.09567,scattered clouds,38.54,37.14,19,4.45,2024-03-08 15:39:37
Kafanchan,9.58333,8.3,light rain,29.7,29.93,45,3.47,2024-03-08 15:39:38
Kaduna State,10.33333,7.75,broken clouds,36.12,34.49,21,1.94,2024-03-08 15:39:38
Kaduna,10.52224,7.43828,broken clouds,37.72,35.91,18,2.33,2024-03-08 15:39:39
Kachia,9.86667,7.95,broken clouds,34.51,33.45,27,2.17,2024-03-08 15:39:40
Kabba,7.82873,6.0731,moderate rain,29.06,31.29,61,1.77,2024-03-08 15:39:41
Jos,9.91667,8.9,overcast clouds,27.89,27.5,39,2.53,2024-03-08 15:39:41
Jimeta,9.28333,12.46667,broken clouds,42.86,40.84,13,1.99,2024-03-08 15:39:42
Jikamshi,12.17328,7.77424,overcast clouds,39.1,35.87,8,5.59,2024-03-08 15:39:43
Jibia,13.09778,7.2225,broken clouds,40.56,36.88,6,4.27,2024-03-08 15:39:44
Jega,12.2175,4.37917,overcast clouds,41.29,37.33,5,3.33,2024-03-08 15:39:45
Jebba,9.13333,4.83333,scattered clouds,42.19,41.43,17,1.02,2024-03-08 15:39:46
Jalingo,8.88333,11.36667,broken clouds,39.44,39.49,23,1.32,2024-03-08 15:39:46
Lajere,11.97969,11.44426,scattered clouds,41.51,38.99,12,3.86,2024-03-08 15:39:47
Jagun Elesin,7.35472,3.98333,light rain,32.36,35.3,51,2.68,2024-03-08 15:39:48
